fid,name,latitude,longitude,formatted_address,street_number,route,city,county,state,zip,country,governing_jurisdiction,governing_body,geocode_status,raw_addr1,raw_addr2,raw_addr3,raw_addr4,raw_addr5
5079,Leucadia,33.0722156,-117.308566,"1448 Neptune Ave, Encinitas, CA 92024, USA",1448,Neptune Avenue,Leucadia,San Diego County,California,92024,United States,municipal,City of Leucadia,OK,1448 Neptune Ave,"Encinitas, CA  92024",United States,,
119550,Calafia Beach,33.4052945,-117.6062382,"250 Avenida Calafia, San Clemente, CA 92672, USA",250,Avenida Calafia,San Clemente,Orange County,California,92672,United States,municipal,City of San Clemente,OK,250 Avenida Calafia,"San Clemente, CA  92672",United States,,
143286,Encinitas Beach,33.0548668,-117.3010606,"340w S El Portal St, Encinitas, CA 92024, USA",340w,South El Portal Street,Encinitas,San Diego County,California,92024,United States,municipal,City of Encinitas,OK,350 S El Portal St,"Encinitas, CA  92024",United States,,
205865,Pescadero Point Beach,37.2445786,-122.4183529,"12719 CA-1, Pescadero, CA 94060, USA",12719,California 1,Pescadero,San Mateo County,California,94060,United States,municipal,City of Pescadero,OK,12863–12879 Cabrillo Hwy,"Pescadero, CA  94060",United States,,
214291,Moss Beach,36.6094649,-121.9490469,"7 17 Mile Dr, Pebble Beach, CA 93953, USA",7,17 Mile Drive,Pebble Beach,Monterey County,California,93953,United States,municipal,City of Pebble Beach,OK,53–63 17 Mile Dr,"Pebble Beach, CA  93953",United States,,
214362,Mother's Beach,33.9815258,-118.4580982,"4101 Admiralty Way, Marina Del Rey, CA 90292, USA",4101,Admiralty Way,Marina del Rey,Los Angeles County,California,90292,United States,municipal,City of Marina del Rey,OK,4101 Admiralty Way,"Marina del Rey, CA  90292",United States,,
263574,Pistachio Beach,37.1922588,-122.3978251,"5JR2+WV Pescadero, CA, USA",,,Pescadero,San Mateo County,California,,United States,municipal,City of Pescadero,OK,"Pigeon Point Rd and Cabrillo Hwy
Pescadero, CA  94060
United States",,,,
269506,Ribbon Beach,33.4496185,-118.5788991,"CCXC+RC Two Harbors, CA, USA",,,Two Harbors,Los Angeles County,California,90704,United States,municipal,City of Two Harbors,OK,,,,,
290718,Pismo Beach,35.1385248,-120.6432694,"1 Pier Ave, Pismo Beach, CA 93449, USA",1,Pier Avenue,Downtown,San Luis Obispo County,California,93449,United States,municipal,City of Downtown,OK,,,,,
295327,Wright's Beach,38.4004416,-123.0969761,"7095 CA-1, Bodega Bay, CA 94923, USA",7095,California 1,Bodega Bay,Sonoma County,California,94923,United States,municipal,City of Bodega Bay,OK,7095 Highway 1,"Bodega Bay CA, 94923",United States,,
302324,Millerton Point,38.1078594,-122.8453767,"4553+4R Millerton, CA, USA",,,Millerton,Marin County,California,94956,United States,municipal,City of Millerton,OK,,,,,
311892,Torrey Pines City Beach,32.8772222,-117.2511111,"2301 Black's Bch Wy, La Jolla, CA 92037, USA",2301,Black's Beach Way,La Jolla,San Diego County,California,92037,United States,municipal,City of La Jolla,OK,Scripps Coastal Reserve,"La Jolla, CA  92037",United States,,
312947,Glass Beach,38.1787638,-122.2877507,"5PH6+GV American Canyon, CA, USA",,,American Canyon,Napa County,California,,United States,municipal,City of American Canyon,OK,"Napa, CA  94559",United States,,,
320902,The Bay,33.7515745,-118.1275804,"5533 E Ocean Blvd, Long Beach, CA 90803, USA",5533,East Ocean Boulevard,Peninsula,Los Angeles County,California,90803,United States,municipal,City of Peninsula,OK,"Long Beach, CA  90803",United States,,,
336395,Half Moon Bay State Beach,37.48448,-122.45357,"FGMW+QH Half Moon Bay, CA, USA",,,Half Moon Bay,San Mateo County,California,94019,United States,state,California State Parks,OK,Half Moon Bay State Beach,"Half Moon Bay, CA  94019",United States,,
363604,City Of Port Hueneme,34.1569991,-119.1924253,"550 Park Ave, Port Hueneme, CA 93041, USA",550,Park Avenue,Port Hueneme,Ventura County,California,93041,United States,municipal,City of Port Hueneme,OK,,,,,
364121,Main Beach,33.5423426,-117.7858186,"163 N Coast Hwy, Laguna Beach, CA 92651, USA",163,North Coast Highway,Laguna Beach,Orange County,California,92651,United States,municipal,City of Laguna Beach,OK,S Coast Highway and Broadway St,"Laguna Beach, CA 92651",United States,,
364760,Dan Blocker Beach,34.0332479,-118.7383783,"26000 Pacific Coast Hwy, Malibu, CA 90265, USA",26000,Pacific Coast Highway,Central Malibu,Los Angeles County,California,90265,United States,municipal,City of Central Malibu,OK,26000 Pacific Coast Hwy,"Malibu, CA 90265",United States,,
404188,Ventura Harbor Village,34.2486825,-119.2671468,"1901 Spinnaker Dr, Ventura, CA 93001, USA",1901,Spinnaker Drive,Ventura,Ventura County,California,93001,United States,municipal,City of Ventura,OK,,,,,
404381,Manresa State Beach,36.9184331,-121.8534903,"W49W+9J La Selva Beach, CA, USA",,,La Selva Beach,Santa Cruz County,California,95076,United States,state,California State Parks,OK,548 Sea Horse Dr,"Watsonville, CA  95076",United States,,
432811,Mill Creek Picnic Area Beach,35.9835887,-121.4915586,"XGM5+C9 Lucia, CA, USA",,,Lucia,Monterey County,California,93920,United States,municipal,City of Lucia,OK,64691–64937 CA-1,"Big Sur, CA  93920",United States,,
444861,Carpinteria State Beach,34.390983,-119.5205571,"5401 4th St, Carpinteria, CA 93013, USA",5401,4th Street,Carpinteria,Santa Barbara County,California,93013,United States,state,California State Parks,OK,5361 Sixth St,"Carpinteria, CA  93013",United States,,
450332,Gerstle Cove Reserve,38.566425,-123.3287463,"HM8C+HG Timber Cove, CA, USA",,,Timber Cove,Sonoma County,California,,United States,municipal,City of Timber Cove,OK,"Jenner, CA  95450",United States,,,
468739,Sandy Dune,34.0749048,-119.0203859,"9000 CA-1, Malibu, CA 90265, USA",9000,California 1,Malibu,Ventura County,California,90265,United States,municipal,City of Malibu,OK,9000 Pacific Coast Hwy,"Malibu, CA  90265",United States,,
473268,Santa Maria Beach,38.0161045,-122.8552561,"248V+CV Inverness, CA, USA",,,Inverness,Marin County,California,,United States,municipal,City of Inverness,OK,"Inverness, CA  94937",United States,,,
530952,Tahoe Pines HOA Pier and Beach,39.1035718,-120.1600825,"4000 W Lake Blvd, Homewood, CA 96141, USA",4000,West Lake Boulevard,Homewood,Placer County,California,96141,United States,municipal,City of Homewood,OK,2–36 Grand Ave,"Homewood, CA 96145",United States,,
558762,Lighthouse Field State Beach,36.9532827,-122.0292615,"Lighthouse Field State Beach, 644-670 W Cliff Dr, Santa Cruz, CA 95060, USA",644-670,West Cliff Drive,Santa Cruz,Santa Cruz County,California,95060,United States,state,California State Parks,OK,701 W Cliff Dr,"Santa Cruz, CA 95060",United States,,
589629,City Beach,33.7626213,-118.1669712,"2 Junipero Ave, Long Beach, CA 90803, USA",2,Junipero Avenue,Bluff Park,Los Angeles County,California,90803,United States,municipal,City of Bluff Park,OK,2100 E Ocean Blvd,"Long Beach, CA  90803",United States,,
590644,Sand Dollar Beach,35.9240069,-121.4684883,"WGFJ+JJ Plaskett, CA, USA",,,Plaskett,Monterey County,California,93920,United States,municipal,City of Plaskett,OK,North Pacific Ocean,"Big Sur, CA 93920",United States,,
673559,Sullivans Beach,33.4618592,-118.5224759,"FF6H+P2 Two Harbors, CA, USA",,,Two Harbors,Los Angeles County,California,90704,United States,municipal,City of Two Harbors,OK,"Santa Catalina Island, CA 90704
United States",,,,
722652,Refugio State Beach,34.4627015,-120.0708354,"Refugio State Beach Campground, 10 Refugio Beach Rd, Goleta, CA 93117, USA",10,Refugio Beach Road,Goleta,Santa Barbara County,California,93117,United States,state,California State Parks,OK,10 Refugio Beach Rd,"Goleta, CA 93117",United States,,
754436,St. Ann's Beach,33.5362348,-117.7798963,"125 St Ann's Dr, Laguna Beach, CA 92651, USA",125,Saint Ann's Drive,Laguna Beach,Orange County,California,92651,United States,municipal,City of Laguna Beach,OK,125 St Ann's Dr,"Laguna Beach, CA  92651",United States,,
772580,Scripps Beach,32.8639981,-117.2549987,"8606 Kennel Way, La Jolla, CA 92037, USA",8606,Kennel Way,La Jolla,San Diego County,California,92037,United States,municipal,City of La Jolla,OK,8608 Kennel Way,"La Jolla, CA  92037",United States,,
788364,Crescent Bay Beach,33.5466788,-117.8017158,"100 Barranca Wy, Laguna Beach, CA 92651, USA",100,Barranca Way,Laguna Beach,Orange County,California,92651,United States,municipal,City of Laguna Beach,OK,,,,,
805813,Manhattan Beach,37.429806,-122.4398655,"CHH6+W3 Half Moon Bay, CA, USA",,,Half Moon Bay,San Mateo County,California,94019,United States,municipal,City of Half Moon Bay,OK,Stairs to Canada Verde Beach,"Half Moon Bay, CA  94019",United States,,
812041,Cove Beach,40.0248532,-124.0659456,"305 Machi Rd, Whitethorn, CA 95589, USA",305,Machi Road,Whitethorn,Humboldt County,California,95589,United States,municipal,City of Whitethorn,OK,1176 Lower Pacific Dr,"Whitethorn, CA 95589",United States,,
817541,Dockweiler State Beach,33.9388028,-118.4406853,"8251 Vista Del Mar, Playa Del Rey, CA 90293, USA",8251,Vista Del Mar,Playa del Rey,Los Angeles County,California,90293,United States,state,California State Parks,OK,12000 Vista del Mar,"Playa del Rey, CA 90293",United States,,
846978,East Beach,33.7387341,-118.3749715,"PJQG+F2 Rancho Palos Verdes, CA, USA",,,Rancho Palos Verdes,Los Angeles County,California,,United States,municipal,City of Rancho Palos Verdes,OK,,,,,
919415,Elk Fence North Beach,38.1809811,-122.9306227,"53J9+9Q Marshall, CA, USA",,,Marshall,Marin County,California,94940,United States,municipal,City of Marshall,OK,,,,,
927574,North Beach,32.6861111,-117.1925,"Coronado Dog Beach, Ocean Blvd, San Diego, CA 92118, USA",,Ocean Boulevard,San Diego,San Diego County,California,92118,United States,municipal,City of San Diego,OK,To Coronado City Beach at Ocean Dr,"Coronado, CA  92118",United States,,
949830,Calawee Cove Beach,38.9991837,-120.0987357,"XWX2+MG Emerald Bay, CA, USA",,,Emerald Bay,El Dorado County,California,96150,United States,municipal,City of Emerald Bay,OK,Calawee Cove Trail,"South Lake Tahoe, CA  96150",United States,,
980229,Frankie’s Beach,33.4652858,-118.5253693,"FF8F+4V Two Harbors, CA, USA",,,Two Harbors,Los Angeles County,California,90704,United States,municipal,City of Two Harbors,OK,West End Road,"Avalon, CA  90704",United States,,
1022715,Wilson Creek Beach,41.6032318,-124.1002017,"15018 Blue Star Memorial Hwy, Klamath, CA 95548, USA",15018,Blue Star Memorial Highway,Klamath,Del Norte County,California,95548,United States,municipal,City of Klamath,OK,Redwood Highway And Wilson Creek Rd,"Klamath, CA  95548",United States,,
1039582,Redondo Beach Pier,33.8401536,-118.3912361,"119 W Torrance Blvd #24, Redondo Beach, CA 90277, USA",119,West Torrance Boulevard,South Redondo,Los Angeles County,California,90277,United States,municipal,City of South Redondo,OK,100 - 500 Fishermans Wharf,"Redondo Beach, CA 90277",United States,,
1059361,Cuyler Harbor Beach Landing,34.0470026,-120.3527035,846X2JWW+RW,,,,,,,,municipal,,OK,Canyon Trail,CA,United States,,
1066609,Steamboat Beach,38.305419,-121.574964,"12414 CA-160, Courtland, CA 95615, USA",12414,California 160,Courtland,Sacramento County,California,95615,United States,municipal,City of Courtland,OK,12414 CA-160,"Courtland, CA 95615",United States,,
1093168,Natural Bridges State Beach,36.9524827,-122.0576354,"2531 W Cliff Dr, Santa Cruz, CA 95060, USA",2531,West Cliff Drive,Santa Cruz,Santa Cruz County,California,95060,United States,state,California State Parks,OK,2531 W Cliff Dr,"Santa Cruz, CA  95060",United States,,
1147515,Lester Beach,39.0004635,-120.1010186,"2V2X+5H Meeks Bay, CA, USA",,,Meeks Bay,El Dorado County,California,96150,United States,municipal,City of Meeks Bay,OK,Lester Beach Rd,"South Lake Tahoe, CA  96150",United States,,
1160918,Kellogg's Beach,32.7101281,-117.2368026,"449 San Antonio Ave, San Diego, CA 92106, USA",449,San Antonio Avenue,Point Loma,San Diego County,California,92106,United States,municipal,City of Point Loma,OK,,,,,
1163237,Morro Rock Beach,35.3747743,-120.8637285,"94FP+WG Morro Bay, CA, USA",,,Morro Bay,San Luis Obispo County,California,,United States,municipal,City of Morro Bay,OK,1700 Embarcadero,"Morro Bay, CA 93442",United States,,
1190386,Corcoran Lagoon Beach,36.9598199,-121.9846451,"22130 E Cliff Dr, Santa Cruz, CA 95062, USA",22130,East Cliff Drive,Santa Cruz,Santa Cruz County,California,95062,United States,municipal,City of Santa Cruz,OK,"E Cliff Dr and Coastview Dr
Santa Cruz, CA  95062
United States",,,,
1273141,Wildcat Beach,37.9632585,-122.7883233,"X676+8M Bolinas, CA, USA",,,Bolinas,Marin County,California,94924,United States,municipal,City of Bolinas,OK,Point Reyes National Seashore,"Bolinas, CA 94924",United States,,
1282829,Victoria Beach,33.5183695,-117.7619576,"17 Lagunita Dr, Laguna Beach, CA 92651, USA",17,Lagunita Drive,Laguna Beach,Orange County,California,92651,United States,municipal,City of Laguna Beach,OK,2713 Victoria Dr,"Laguna Beach, CA  92651",United States,,
1300193,Gallinas Beach,38.0154777,-122.5049757,"800 Upper Rd, San Rafael, CA 94903, USA",800,Upper Road,San Rafael,Marin County,California,94903,United States,municipal,City of San Rafael,OK,609 N San Pedro Rd,"Santa Venetia, CA  94903",United States,,
1317321,Windansea Beach,32.8281502,-117.2802847,"6700 Neptune Pl, La Jolla, CA 92037, USA",6700,Neptune Place,La Jolla,San Diego County,California,92037,United States,municipal,City of La Jolla,OK,6800 Neptune Pl,"La Jolla, CA 92037",United States,,
1347592,Elm Grove Beach,33.667919,-117.33728,"614-758 Lakeshore Dr, Lake Elsinore, CA 92530, USA",614-758,Lakeshore Drive,Lake Elsinore,Riverside County,California,92530,United States,municipal,City of Lake Elsinore,OK,500 Lakeshore Dr,"Lake Elsinore, CA 92530",United States,,
1348332,Seal Beach,34.7378529,-120.6265047,"P9QF+49 Vandenberg Space Force Base, CA, USA",,,Vandenberg Space Force Base,Santa Barbara County,California,,United States,municipal,City of Vandenberg Space Force Base,OK,,,,,
1383791,Point Dume,34.0035063,-118.8072574,"29377 Cliffside Dr, Malibu, CA 90265, USA",29377,Cliffside Drive,Central Malibu,Los Angeles County,California,90265,United States,municipal,City of Central Malibu,OK,Cliffside Dr & Birdview Ave,Malibu,California,90265,United States
1387065,San Mateo Coast State Beaches,37.2965829,-122.4068453,"7HWV+J7 San Gregorio, CA, USA",,,San Gregorio,San Mateo County,California,,United States,state,California State Parks,OK,Cabrillo Hwy S,"San Gregorio, CA 94074",United States,,
1403201,Harbor Cove Beach,34.2467448,-119.2680029,"1860 Spinnaker Dr, Ventura, CA 93001, USA",1860,Spinnaker Drive,Ventura,Ventura County,California,93001,United States,municipal,City of Ventura,OK,1878- 1998 Spinnaker Dr,"Ventura, CA 93001",United States,,
1411049,Bodega Head Beach,38.3043097,-123.0647063,"8W3P+P4 Bodega Bay, CA, USA",,,Bodega Bay,Sonoma County,California,,United States,municipal,City of Bodega Bay,OK,CA 94923,United States,,,
1421678,Westport/union Landing,39.6603198,-123.786537,"39601 Shoreline Hwy, Westport, CA 95488, USA",39601,Shoreline Highway,Westport,Mendocino County,California,95488,United States,municipal,City of Westport,OK,Westport-Union Landing State Beach,CA,United States,,
1427735,Fish Rock Beach at Anchor Bay,38.804133,-123.579341,"35498 Shoreline Hwy, Gualala, CA 95445, USA",35498,Shoreline Highway,Gualala,Mendocino County,California,95445,United States,municipal,City of Gualala,OK,35400 CA-1,"Gualala, CA  95445",United States,,
1446200,Spanish Landing Park,32.7284925,-117.2094709,"4300 N Harbor Dr, San Diego, CA 92101, USA",4300,North Harbor Drive,Point Loma,San Diego County,California,92101,United States,municipal,City of Point Loma,OK,4104 N Harbor Dr,"San Diego, CA  92101",United States,,
1463229,Sand Cove Beach,38.5992528,-121.5430952,"Sand Cove Park, 2005 Garden Hwy, Sacramento, CA 95833, USA",2005,Garden Highway,North Sacramento,Sacramento County,California,95833,United States,municipal,City of North Sacramento,OK,2005 Garden Hwy,"Sacramento, CA  95833",United States,,
1472076,Catfish Beach,40.3111616,-121.1774826,"8R6F+F2 Chester, CA, USA",,,Chester,Plumas County,California,96020,United States,municipal,City of Chester,OK,"Westwood, CA  96137",United States,,,
1478384,Shark's Cove,36.9635596,-121.9616484,"4370 Opal Cliff Dr, Santa Cruz, CA 95062, USA",4370,Opal Cliff Drive,Opal Cliffs,Santa Cruz County,California,95062,United States,municipal,City of Opal Cliffs,OK,4170 Opal Cliff Dr,"Santa Cruz, CA  95062",United States,,
1489635,Gallatin Beach,40.558314,-120.7702051,"H65H+8W Spaulding, CA, USA",,,Spaulding,Lassen County,California,96130,United States,municipal,City of Spaulding,OK,"Susanville, CA  96130",United States,,,
1500796,Ventura Cove Park,32.7730729,-117.2450589,"240 Gleason Rd, San Diego, CA 92109, USA",240,Gleason Road,Mission Beach,San Diego County,California,92109,United States,municipal,City of Mission Beach,OK,1100 W Mission Bay Dr,"San Diego, CA  92109",United States,,
1516107,Naples Beach,37.463062,-122.429164,"527 Main St, Half Moon Bay, CA 94019, USA",527,Main Street,Half Moon Bay,San Mateo County,California,94019,United States,municipal,City of Half Moon Bay,OK,527 Main St,"Half Moon Bay, CA  94019",United States,,
1532880,Buck's Beach,39.2229561,-120.0083411,"9898 Lake St, Kings Beach, CA 96143, USA",9898,Lake Street,Kings Beach,Placer County,California,96143,United States,municipal,City of Kings Beach,OK,9910 Lake St,"Kings Beach, CA  96143",United States,,
1544540,Mountain Road Beach,33.5310866,-117.775388,"1401 S Coast Hwy, Laguna Beach, CA 92651, USA",1401,South Coast Highway,Laguna Beach,Orange County,California,92651,United States,municipal,City of Laguna Beach,OK,101 Mountain Rd,"Laguna Beach, CA  92651",United States,,
1553963,Long Cove Beach,38.1517405,-122.9111552,"532Q+MG Sacramento Landing, CA, USA",,,Sacramento Landing,Marin County,California,94937,United States,municipal,City of Sacramento Landing,OK,6150 Pierce Point Rd,"Inverness, CA  94937",United States,,
1576641,Santa Monica bike trail,34.0236084,-118.5127734,"445 CA-1, Santa Monica, CA 90402, USA",445,California 1,North of Montana,Los Angeles County,California,90402,United States,municipal,City of North of Montana,OK,445 Pacific Coast Hwy,"Santa Monica, CA  90402",United States,,
1581105,Arroyo Burro Beach,34.4027865,-119.7433816,"Arroyo Burro Beach County Park, 2981 Cliff Dr, Santa Barbara, CA 93109, USA",2981,Cliff Drive,West Mesa,Santa Barbara County,California,93109,United States,municipal,City of West Mesa,OK,2981 1/2 Cliff Dr,"Santa Barbara, CA  93109",United States,,
1594332,Bayside Beach,33.6024404,-117.8831345,"1911 Bayside Dr, Corona Del Mar, CA 92625, USA",1911,Bayside Drive,Corona Del Mar,Orange County,California,92625,United States,municipal,City of Corona Del Mar,OK,1901 Bayside Dr,"Corona Del Mar, CA  92625",United States,,
1620294,Mickey's Beach,37.8874001,-122.631212,"V9P9+XG Stinson Beach, CA, USA",,,Stinson Beach,Marin County,California,94970,United States,municipal,City of Stinson Beach,OK,,,,,
1627153,White Point Beach,33.715764,-118.319191,"1799 W Paseo Del Mar, San Pedro, CA 90731, USA",1799,West Paseo Del Mar,San Pedro,Los Angeles County,California,90731,United States,municipal,City of San Pedro,OK,1799 W Paseo del Mar,"San Pedro, CA 90732",United States,,
1627495,Stonesteps Beach,33.0546086,-117.3011434,"340w S El Portal St, Encinitas, CA 92024, USA",340w,South El Portal Street,Encinitas,San Diego County,California,92024,United States,municipal,City of Encinitas,OK,340 S El Portal St,"Encinitas, CA  92024",United States,,
1638315,New Brighton State Beach,36.9784723,-121.9351722,"1516 Park Ave, Capitola, CA 95010, USA",1516,Park Avenue,Capitola,Santa Cruz County,California,95010,United States,state,California State Parks,OK,1500 Park Ave,"Capitola, CA  95010",United States,,
1647172,Anita Street Beach,33.5347962,-117.7780522,"1003 S Coast Hwy, Laguna Beach, CA 92651, USA",1003,South Coast Highway,Laguna Beach,Orange County,California,92651,United States,municipal,City of Laguna Beach,OK,Gaviota Dr & Anita St,"Laguna Beach, CA  92651",United States,,
1672701,Marine Street Beach,32.8357506,-117.2815311,"304 Neptune Pl, La Jolla, CA 92037, USA",304,Neptune Place,La Jolla,San Diego County,California,92037,United States,municipal,City of La Jolla,OK,304-300 Sea Ln,"La Jolla, CA 92037",United States,,
1674961,Little Dume Beach,34.0111425,-118.7937272,"29208 Cliffside Dr, Malibu, CA 90265, USA",29208,Cliffside Drive,Central Malibu,Los Angeles County,California,90265,United States,municipal,City of Central Malibu,OK,6988 Wildlife Rd,"Malibu, CA 90265",United States,,
1681190,Salt Creek Beach Park,33.4766816,-117.7204156,"Salt Creek Beach Park, Salt Creek Beach, 33333 Pacific Coast Hwy, Dana Point, CA 92629, USA",33333,Pacific Coast Highway,Monarch Beach,Orange County,California,92629,United States,municipal,City of Monarch Beach,OK,33333 S Pacific Coast Hwy,"Dana Point, CA 92629",United States,,
1689752,Warm Waters Jetty Beach,33.1411419,-117.3406638,"Carlsbad Blvd & Beach Tower 32, Carlsbad, CA 92008, USA",,,Carlsbad,San Diego County,California,92008,United States,municipal,City of Carlsbad,OK,4315 Carlsbad Blvd,"Carlsbad, CA  92008",United States,,
1696335,Trinidad State Beach,41.1353823,-124.1546596,"Sue-Meg Park, California 95570, USA",,,,Humboldt County,California,95570,United States,state,California State Parks,OK,4150 Patricks Point Dr,"Trinidad, CA  95570",United States,,
1783598,Venice,33.9801416,-118.4692247,"2800 Ocean Front Walk, Venice, CA 90291, USA",2800,Ocean Front Walk,Venice,Los Angeles County,California,90291,United States,municipal,City of Venice,OK,The Strand Marvin Braude Bike Trail-Santa Monica-Venice Beach,"Santa Monica, CA  90405",United States,,
1888420,Fish Rock Beach,38.8030588,-123.5818298,"35200 CA-1, Gualala, CA 95445, USA",35200,California 1,Gualala,Mendocino County,California,95445,United States,municipal,City of Gualala,OK,35200 CA-1,"Gualala, CA  95445",United States,,
1891683,Long Beach Latin Soul,33.7756095,-118.146459,"713 Termino Ave, Long Beach, CA 90804, USA",713,Termino Avenue,Eastside,Los Angeles County,California,90804,United States,municipal,City of Eastside,OK,713 Termino Ave,"Long Beach, CA  90804",United States,,
1892675,Avila Beach,35.1785351,-120.7341349,"445 Front St, San Luis Obispo, CA 93401, USA",445,Front Street,San Luis Obispo,San Luis Obispo County,California,93401,United States,municipal,City of San Luis Obispo,OK,"Avila Beach, CA 93424",United States,,,
1904901,Devereux Beach,34.4087613,-119.8755598,"7045 Seaway Dr, Isla Vista, CA 93117, USA",7045,Seaway Drive,Isla Vista,Santa Barbara County,California,93117,United States,municipal,City of Isla Vista,OK,"Goleta, CA  93117",United States,,,
1915003,Davenport Landing Beach,37.0242955,-122.2161412,"Davenport Landing Beach, 335 Davenport Landing Rd, Davenport, CA 95017, USA",335,Davenport Landing Road,Davenport,Santa Cruz County,California,95017,United States,municipal,City of Davenport,OK,,,,,
1940033,Sandy Beach,39.803735,-121.4411652,"13759 CA-70, Oroville, CA 95965, USA",13759,California 70,Oroville,Butte County,California,95965,United States,municipal,City of Oroville,OK,13597–13601 CA-70,"Oroville, CA  95965",United States,,
1941540,Dana Point Headlands Beach,33.4607552,-117.7082896,"Harbor Point Conservation Park, 34558 Scenic Dr, Dana Point, CA 92629, USA",34558,Scenic Drive,Dana Point,Orange County,California,92629,United States,municipal,City of Dana Point,OK,24200 Dana Point Harbor Dr,"Dana Point, CA  92629",United States,,
1959098,San Carpoforo Creek Beach,35.7634033,-121.3229656,"1550 Slo San Simeon Rd, Cambria, CA 93428, USA",1550,Slo San Simeon Road,Cambria,San Luis Obispo County,California,93428,United States,municipal,City of Cambria,OK,18550 Cabrillo Hwy,"San Simeon, CA 93452",United States,,
1972165,North Bird Rock,32.8080838,-117.2655907,"411 Sea Ridge Dr, La Jolla, CA 92037, USA",411,Sea Ridge Drive,La Jolla,San Diego County,California,92037,United States,municipal,City of La Jolla,OK,403 Sea Ridge Dr,"La Jolla, CA 92037",United States,,
1978733,Mandalay State Beach,34.2012677,-119.2506862,"6P2X+GP Oxnard, CA, USA",,,Oxnard,Ventura County,California,,United States,state,California State Parks,OK,Mandalay State Beach,"Oxnard, CA 93035",United States,,
2005449,Totuava Beach,33.5000923,-117.7443386,"31831 CA-1, Laguna Beach, CA 92651, USA",31831,California 1,Laguna Beach,Orange County,California,92651,United States,municipal,City of Laguna Beach,OK,31951 S Coast Hwy,"Laguna Beach, CA  92651",United States,,
2007820,South Beach,41.7448065,-124.1773781,"245 Anchor Way, Crescent City, CA 95531, USA",245,Anchor Way,Crescent City,Del Norte County,California,95531,United States,municipal,City of Crescent City,OK,128 Anchor Way,"Crescent City, CA  95531",United States,,
2047198,Gibraltar Beach,33.4210228,-118.4071214,"CHCV+C5 Avalon, CA, USA",,,Avalon,Los Angeles County,California,90704,United States,municipal,City of Avalon,OK,Santa Catalina Island,CA,United States,,
2052963,Morro Strand State Beach,35.3867186,-120.8645143,"94PP+M5 Morro Bay, CA, USA",,,Morro Bay,San Luis Obispo County,California,,United States,state,California State Parks,OK,3202 Beachcomber Dr,"Morro Bay, CA  93442",United States,,
2065434,Klamath Beach,41.511448,-124.0285727,"Klamath Beach Rd, Klamath, CA 95548, USA",,Klamath Beach Road,Klamath,Del Norte County,California,95548,United States,municipal,City of Klamath,OK,,,,,
2068359,Wages Creek Beach,39.6521664,-123.7844864,"38525 CA-1, Westport, CA 95488, USA",38525,California 1,Westport,Mendocino County,California,95488,United States,municipal,City of Westport,OK,CA-1,"Westport, CA  95488",United States,,
2106935,Gamboa Beach,36.0714445,-121.6044332,"61098 CA-1, Big Sur, CA 93920, USA",61098,California 1,Big Sur,Monterey County,California,93920,United States,municipal,City of Big Sur,OK,,,,,
2171416,Potbelly Beach,36.9774506,-121.9288474,"797 Las Olas Dr, Aptos, CA 95003, USA",797,Las Olas Drive,Aptos,Santa Cruz County,California,95003,United States,municipal,City of Aptos,OK,Potbelly Beach Rd,"Aptos, CA  95003",United States,,
2171636,Oceano Dunes State Rec Area,35.0718878,-120.6296859,"39CC+Q4 Oceano, CA, USA",,,Oceano,San Luis Obispo County,California,,United States,municipal,City of Oceano,OK,"San Luis Obispo County, CA",United States,,,
2181355,Mitchell’s Cove Beach,36.9527847,-122.0413551,"339 W Cliff Dr, Santa Cruz, CA 95060, USA",339,West Cliff Drive,Santa Cruz,Santa Cruz County,California,95060,United States,municipal,City of Santa Cruz,OK,1200–1240 W Cliff Dr,"Santa Cruz, CA  95060",United States,,
2195319,Morro Bay Dog Beach,35.4150228,-120.8744896,"100 Toro Creek Rd, Cayucos, CA 93430, USA",100,Toro Creek Road,Cayucos,San Luis Obispo County,California,93430,United States,municipal,City of Cayucos,OK,Toro Creek Road,"Cayucos, CA 93430",United States,,
2200958,Seascape Sur Beach,32.984953,-117.2732162,"539 S Sierra Ave, Solana Beach, CA 92075, USA",539,South Sierra Avenue,Solana Beach,San Diego County,California,92075,United States,municipal,City of Solana Beach,OK,501 S Sierra Ave,"Solana Beach, CA  92075",United States,,
2228365,Shark Fin Cove Loop,36.9996799,-122.179909,"Hwy 1 &, Bonny Doon Rd, Davenport, CA 95017, USA",,Bonny Doon Road,Davenport,Santa Cruz County,California,95017,United States,municipal,City of Davenport,OK,CA-1,"Davenport, CA  95017",United States,,
2265001,Paradise Cove Beach,34.0196656,-118.7874091,"28128 Pacific Coast Hwy, Malibu, CA 90265, USA",28128,Pacific Coast Highway,Central Malibu,Los Angeles County,California,90265,United States,municipal,City of Central Malibu,OK,28128 Pacific Coast Hwy,"Malibu, CA  90265",United States,,
2292030,Bruce's Beach,33.8937072,-118.4172106,"Manhattan Beach Strand Parcourse, 2600 The Strand, Manhattan Beach, CA 90266, USA",2600,The Strand,Manhattan Beach,Los Angeles County,California,90266,United States,municipal,City of Manhattan Beach,OK,Marvin Braude Bike Path,"Manhattan Beach, CA  90266",United States,,
2301923,Trancas Beach,34.0333427,-118.8506359,"31064 Broad Beach Rd, Malibu, CA 90265, USA",31064,Broad Beach Road,Western Malibu,Los Angeles County,California,90265,United States,municipal,City of Western Malibu,OK,31100 Broad Beach Rd,"Malibu, CA  90265",United States,,
2347970,Sand Plant Beach,36.9546657,-122.0912592,"XW35+VF Santa Cruz, CA, USA",,,Santa Cruz,Santa Cruz County,California,,United States,municipal,City of Santa Cruz,OK,Wilder Ranch Bluff Trails,"Santa Cruz, CA  95060",United States,,
2355706,Junipero Beach,33.7606952,-118.1569859,"3066 E Ocean Blvd, Long Beach, CA 90803, USA",3066,East Ocean Boulevard,Bluff Park,Los Angeles County,California,90803,United States,municipal,City of Bluff Park,OK,1 Junipero Ave,"Long Beach, CA  90803",United States,,
2358248,Torrey Pines State Beach,32.928157,-117.2598696,"WPHR+73 San Diego, CA, USA",,,San Diego,San Diego County,California,,United States,state,California State Parks,OK,"12600 N. Torrey Pines Road 
San Diego, CA 92037
United States",,,,
2361122,Ross Cove Beach,37.501153,-122.498513,"GG22+FH Moss Beach, CA, USA",,,Moss Beach,San Mateo County,California,,United States,municipal,City of Moss Beach,OK,280 W Point Ave,"Moss Beach, CA  94038",United States,,
2377366,A Street Beach,33.600151,-117.8993645,"50 Main St, Newport Beach, CA 92661, USA",50,Main Street,Balboa Peninsula,Orange County,California,92661,United States,municipal,City of Balboa Peninsula,OK,Peninsula Park and Parking Lot-Balboa,"Newport Beach, CA  92661",United States,,
2416948,San Vicente Beach,37.0096266,-122.1942763,"3500 CA-1, Davenport, CA 95017, USA",3500,California 1,Davenport,Santa Cruz County,California,95017,United States,municipal,City of Davenport,OK,Cotoni-Coast Dairies,CA,United States,,
2426674,Kid Beach,33.5984682,-117.8829816,"2200 Channel Rd, Newport Beach, CA 92661, USA",2200,Channel Road,Balboa Peninsula,Orange County,California,92661,United States,municipal,City of Balboa Peninsula,OK,2210 Channel Rd,"Newport Beach, CA  92661",United States,,
2431480,Little Point Beach,32.833683,-117.2818337,"7080 Neptune Pl, La Jolla, CA 92037, USA",7080,Neptune Place,La Jolla,San Diego County,California,92037,United States,municipal,City of La Jolla,OK,7080 Neptune Pl,"La Jolla, CA  92037",United States,,
2439387,Samoa Beach,40.8213929,-124.1909873,"127 Sunset Ave, Samoa, CA 95564, USA",127,Sunset Avenue,Samoa,Humboldt County,California,95564,United States,municipal,City of Samoa,OK,New Navy Base Rd,"Samoa, CA  95564",United States,,
2448124,Rockpile Beach,33.5434033,-117.7906503,"Rockpile Beach, Cliff Dr, Laguna Beach, CA 92651, USA",,Cliff Drive,Laguna Beach,Orange County,California,92651,United States,municipal,City of Laguna Beach,OK,400 Cliff Dr,"Laguna Beach, CA 92651",United States,,
2463115,Avalis Beach,38.231624,-122.9815216,"62J9+J9 Dillon Beach, CA, USA",,,Dillon Beach,Marin County,California,,United States,municipal,City of Dillon Beach,OK,"Marin County, CA",United States,,,
2501233,Moonstone Beach,33.388753,-118.3678794,"9JQJ+GR Avalon, CA, USA",,,Avalon,Los Angeles County,California,90704,United States,municipal,City of Avalon,OK,,,,,
2502285,Button Shell Beach,33.4050472,-118.3690352,"CJ4J+29 Avalon, CA, USA",,,Avalon,Los Angeles County,California,90704,United States,municipal,City of Avalon,OK,Santa Catalina Island,CA 90704,United States,,
2533337,Huntington State Beach,33.6384539,-117.9750109,"Lifeguard Hut Tower No. 8, Huntington State Beach, 21601 Pacific Coast Hwy, Huntington Beach, CA 92646, USA",21601,Pacific Coast Highway,Huntington Beach,Orange County,California,92646,United States,state,California State Parks,OK,"21601 Pacific Coast Hwy
Huntington Beach, CA  92646
United States",,,,
2541400,Boomer Beach,32.8486542,-117.2763115,"949 Coast Blvd, La Jolla, CA 92037, USA",949,Coast Boulevard,La Jolla,San Diego County,California,92037,United States,municipal,City of La Jolla,OK,1160 Coast Blvd,"La Jolla, CA 92037",United States,,
2546878,Bolsa Chica State Beach,33.6962577,-118.0489862,"17851 Pacific Coast Hwy, Huntington Beach, CA 92649, USA",17851,Pacific Coast Highway,Huntington Beach,Orange County,California,92649,United States,state,California State Parks,OK,17851 Pacific Coast Hwy,"Huntington Beach, CA 92649",United States,,
2576116,North Ponto Beach,33.114258,-117.324487,"6039-6325 Carlsbad Blvd, Carlsbad, CA 92008, USA",6039-6325,Carlsbad Boulevard,Carlsbad,San Diego County,California,92008,United States,municipal,City of Carlsbad,OK,San Diego County Coastal Bike Rte N,"Carlsbad, CA  92008",United States,,
2617546,Anchor Bay Beach,38.7936973,-123.5656357,"36450 CA-1, Gualala, CA 95445, USA",36450,California 1,Gualala,Mendocino County,California,95445,United States,municipal,City of Gualala,OK,36450 Shoreline Hwy,"Gualala, CA  95445",United States,,
2620068,Garbage Beach,32.717365,-117.255947,"701 Cornish Dr, San Diego, CA 92107, USA",701,Cornish Drive,Wooded Area,San Diego County,California,92107,United States,municipal,City of Wooded Area,OK,Ladera St & Sunset Cliffs Blvd,"San Diego, CA  92107",United States,,
2649621,Mission Bay Bike Path,32.7726307,-117.24961,"3218 Bayside Ln, San Diego, CA 92109, USA",3218,Bayside Lane,Mission Beach,San Diego County,California,92109,United States,municipal,City of Mission Beach,OK,3220 Bayside Walk,"San Diego, CA  92109",United States,,
2655527,Campbell Cove,38.3048685,-123.0572142,"8W3V+W4 Bodega Bay, CA, USA",,,Bodega Bay,Sonoma County,California,,United States,municipal,City of Bodega Bay,OK,"Bodega Bay, CA",United States,,,
2664613,Point Dume State Beach,34.003811,-118.8103002,"7150 Westward Beach Rd, Malibu, CA 90265, USA",7150,Westward Beach Road,Central Malibu,Los Angeles County,California,90265,United States,state,California State Parks,OK,6800 Westward Beach Rd,"Malibu, CA  90265",United States,,
2667696,Ormond Beach,34.1197721,-119.1588897,"4R9R+WC Oxnard, CA, USA",,,Oxnard,Ventura County,California,,United States,municipal,City of Oxnard,OK,6859 Arnold Rd,"Oxnard, CA  93033",United States,,
2679561,Whispering Sands Beach,32.8391581,-117.2818154,"100 Coast Blvd, La Jolla, CA 92037, USA",100,Coast Boulevard,La Jolla,San Diego County,California,92037,United States,municipal,City of La Jolla,OK,202 Coast Blvd,"La Jolla, CA 92037",United States,,
2691146,Hamilton Beach,33.35368,-118.3298287,"9M3C+F3 Avalon, CA, USA",,,Avalon,Los Angeles County,California,90704,United States,municipal,City of Avalon,OK,80 Playa Azul,"Avalon, CA  90704",United States,,
2732000,North Beach,34.7543069,-117.3442465,"27722 Lakeview Dr, Helendale, CA 92342, USA",27722,Lakeview Drive,Helendale,San Bernardino County,California,92342,United States,municipal,City of Helendale,OK,27722 Lakeview Dr,"Helendale, CA  92342",United States,,
2732905,The Esplanade Public Coastal Access,32.7285647,-117.2099617,"4300 N Harbor Dr, San Diego, CA 92101, USA",4300,North Harbor Drive,Point Loma,San Diego County,California,92101,United States,municipal,City of Point Loma,OK,4461 N Harbor Dr,"San Diego, CA  92101",United States,,
2734793,Big Bird's Beach,32.5873404,-117.0107804,"2052 Entertainment Cir, Chula Vista, CA 91911, USA",2052,Entertainment Circle,Chula Vista,San Diego County,California,91911,United States,municipal,City of Chula Vista,OK,2052 Entertainment Cir,"Chula Vista, CA  91911",United States,,
2749283,South Beach,33.3430817,-118.3246597,"519 Crescent Ave, Avalon, CA 90704, USA",519,Crescent Avenue,Avalon,Los Angeles County,California,90704,United States,municipal,City of Avalon,OK,501 Crescent Ave,"Avalon, CA  90704",United States,,
2756165,South Oceanside Beach,33.1723135,-117.3652337,"1821 S Pacific St, Oceanside, CA 92054, USA",1821,South Pacific Street,South Oceanside,San Diego County,California,92054,United States,municipal,City of South Oceanside,OK,1700 S Pacific St,"Oceanside, CA 92054",United States,,
2759181,Padaro Lane,34.4148617,-119.5668972,"3248 Beach Club Rd, Carpinteria, CA 93013, USA",3248,Beach Club Road,Carpinteria,Santa Barbara County,California,93013,United States,municipal,City of Carpinteria,OK,3248 Beach Club Rd,"Toro Canyon, CA  93013",United States,,
2801898,Lifeguard Tower 30,33.1462921,-117.3448098,"3906 Carlsbad Blvd, Carlsbad, CA 92008, USA",3906,Carlsbad Boulevard,Carlsbad Village,San Diego County,California,92008,United States,municipal,City of Carlsbad Village,OK,3951–3979 Carlsbad Blvd,"Carlsbad, CA  92008",United States,,
2807493,Sycamore Cove Beach,34.0700714,-119.0130204,"9000 Pacific Coast Hwy, Malibu, CA 90265, USA",9000,Pacific Coast Highway,Malibu,Ventura County,California,90265,United States,municipal,City of Malibu,OK,9000 Pacific Coast Hwy,"Malibu, CA 90265",United States,,
2811408,Speedboat Beach,39.2231009,-120.0083444,"9898 Lake St, Kings Beach, CA 96143, USA",9898,Lake Street,Kings Beach,Placer County,California,96143,United States,municipal,City of Kings Beach,OK,,,,,
2814885,Burlingame Beach Boardwalk,37.5920404,-122.3461235,"198 Anza Blvd, Burlingame, CA 94010, USA",198,Anza Boulevard,Burlingame,San Mateo County,California,94010,United States,municipal,City of Burlingame,OK,150 Anza Blvd,"Burlingame, CA  94010",United States,,
2818493,Cliffs Beach,37.0523474,-122.2429513,"3Q24+WR Swanton, CA, USA",,,Swanton,Santa Cruz County,California,95017,United States,municipal,City of Swanton,OK,CA-1,"Davenport, CA  95017",United States,,
2823508,Stillwater Cove Beach,36.5657755,-121.9408339,"3221 Whitman Pl, Pebble Beach, CA 93953, USA",3221,Whitman Place,Pebble Beach,Monterey County,California,93953,United States,municipal,City of Pebble Beach,OK,Stillwater Cove Beach,"Pebble Beach, CA  93953",United States,,
2841061,Redwood Creek Beach,41.285939,-124.092819,"7WP4+9V Orick, CA, USA",,,Orick,Humboldt County,California,,United States,municipal,City of Orick,OK,Kuchel Visitor Center Access,"Trinidad, CA 95570",United States,,
2855498,"Huntington Beach, Tower 17",33.6481987,-117.9904961,"Huntington City Lifeguards, 21579 Pacific Coast Hwy, Huntington Beach, CA 92648, USA",21579,Pacific Coast Highway,Huntington Beach,Orange County,California,92648,United States,municipal,City of Huntington Beach,OK,Huntington Beach Bike Trail,"Huntington Beach, CA  92648",United States,,
2864146,Sunny Cove Beach,36.96054,-121.9894785,"275 Geoffroy Dr, Santa Cruz, CA 95062, USA",275,Geoffroy Drive,Santa Cruz,Santa Cruz County,California,95062,United States,municipal,City of Santa Cruz,OK,179 Sunny Cove Dr,"Twin Lakes, CA  95062",United States,,
2897812,Pigeon Point Beach,37.1872536,-122.3968046,"5JP3+W7 Pescadero, CA, USA",,,Pescadero,San Mateo County,California,,United States,municipal,City of Pescadero,OK,7037 Cabrillo Hwy,"Pescadero, CA  94060",United States,,
2898958,San Carlos Beach,36.6100473,-121.8956669,"San Carlos Beach Park, 100 Reeside Ave, Monterey, CA 93940, USA",100,Reeside Avenue,Monterey,Monterey County,California,93940,United States,municipal,City of Monterey,OK,329 Cannery Row,"Monterey, CA  93940",United States,,
2901323,Willow Cove Beach,33.3776304,-118.3563886,"9JHV+3C Avalon, CA, USA",,,Avalon,Los Angeles County,California,90704,United States,municipal,City of Avalon,OK,Northeast Shore,"Avalon, CA 90704",,,
2929625,Seal Beach Old Town,33.7355317,-118.1090207,"PVPR+69 Old Towne, Seal Beach, CA, USA",,,Old Towne,Orange County,California,90740,United States,municipal,City of Old Towne,OK,Main St & Pacific Coast Hwy,"Seal Beach, CA  90740",United States,,
2952274,Danburg Beach,38.015,-119.1358333,"2V77+XM Mono City, CA, USA",,,Mono City,Mono County,California,93541,United States,municipal,City of Mono City,OK,"Lee Vining, CA 93541",United States,,,
2982253,Horny Corner Beach,33.7549235,-118.1319737,"45 54th Pl, Long Beach, CA 90803, USA",45,54th Place,Belmont Shore,Los Angeles County,California,90803,United States,municipal,City of Belmont Shore,OK,57 Bay Shore Ave,"Long Beach, CA  90803",United States,,
3064688,Greenwood State Beach,39.1273619,-123.7174602,"6190 Shoreline Hwy, Elk, CA 95432, USA",6190,Shoreline Highway,Elk,Mendocino County,California,95432,United States,state,California State Parks,OK,6150 Highway 1,"Elk, CA 95432",United States,,
3065514,Tennessee Beach,37.842129,-122.551753,"RCRX+V7 Tamalpais-Homestead Valley, CA, USA",,,Tamalpais-Homestead Valley,Marin County,California,94941,United States,municipal,City of Tamalpais-Homestead Valley,OK,Tennessee Valley Rd,"Sausalito, CA  94965",United States,,
3065700,Frenchys Cove Beach,34.0071456,-119.4110377,85622H4Q+VH,,,,,,,,municipal,,OK,,,,,
3086299,Del Mar Beaches,32.9628385,-117.268611,"1728 Ocean Front, Del Mar, CA 92014, USA",1728,Ocean Front,Del Mar,San Diego County,California,92014,United States,municipal,City of Del Mar,OK,,,,,
3088652,Howland's Landing,33.4617867,-118.5227614,"100 Howland Landing, Avalon, CA 90704, USA",100,Howland Landing,Avalon,Los Angeles County,California,90704,United States,municipal,City of Avalon,OK,Santa Catalina Island,CA,United States,,
3089995,Marina Peninsula Beach,33.9675802,-118.4599009,"XG9R+22 Los Angeles, CA, USA",,,Los Angeles,Los Angeles County,California,,United States,municipal,City of Los Angeles,OK,Pacific Avenue and Via Marina,"Marina del Rey, CA 90292",United States,,
3094675,South Beach,37.08,-121.0580556,"3WHR+JQ, Santa Nella, CA 95322, USA",,,Santa Nella,Merced County,California,95322,United States,municipal,City of Santa Nella,OK,"Gustine, CA  95322",United States,,,
3165623,Carlsbad City Beach,33.1580242,-117.3539585,"Grand Ave Beach Access, 2901 Ocean St, Carlsbad, CA 92008, USA",2901,Ocean Street,Carlsbad Village,San Diego County,California,92008,United States,municipal,City of Carlsbad Village,OK,"Ocean St and Grand Avenue
Carlsbad, CA 92008
United States",,,,
3168729,Sand Dollar Beach,32.5853763,-117.1326238,"634 Ocean Ln, Imperial Beach, CA 91932, USA",634,Ocean Lane,Imperial Beach,San Diego County,California,91932,United States,municipal,City of Imperial Beach,OK,630 Ocean Ln,"Imperial Beach, CA  91932",United States,,
3193741,Gallagher Beach,33.3699906,-118.3481423,"9M92+XP Avalon, CA, USA",,,Avalon,Los Angeles County,California,90704,United States,municipal,City of Avalon,OK,,,,,
3220163,The Wedge,33.593265,-117.8811684,"West Jetty, Newport Beach, CA, USA",,,Newport Beach,Orange County,California,,United States,municipal,City of Newport Beach,OK,,,,,
3222157,Usmc Camp Pendleton,33.223178,-117.4098927,"6HFR+72 Camp Pendleton South, CA, USA",,,Camp Pendleton South,San Diego County,California,92058,United States,municipal,City of Camp Pendleton South,OK,"Oceanside, CA  92054",United States,,,
3259415,Alan P Sieroty Beach,38.1076104,-122.8420284,"4555+25 Millerton, CA, USA",,,Millerton,Marin County,California,94956,United States,municipal,City of Millerton,OK,CA-1,"Point Reyes Station, CA  94956",United States,,
3265951,Abalone Cove Beach,33.74163,-118.379083,"Palos Verdes Dr S - Wayfarers Chapel Site, Rancho Palos Verdes, CA 90275, USA",,,Rancho Palos Verdes,Los Angeles County,California,90275,United States,municipal,City of Rancho Palos Verdes,OK,5052 Palos Verdes Dr S,"Rancho Palos Verdes, CA  90275",United States,,
3271954,Hanna Beach,34.0525326,-118.9623675,"42398 CA-1, Malibu, CA 90265, USA",42398,California 1,Malibu,Ventura County,California,90265,United States,municipal,City of Malibu,OK,42501–42585 Pacific Coast Hwy,"Malibu, CA  90265",United States,,
3276472,Playa San Juan Leighton,34.0383274,-118.8817458,"32434 Pacific Coast Hwy, Malibu, CA 90265, USA",32434,Pacific Coast Highway,Western Malibu,Los Angeles County,California,90265,United States,municipal,City of Western Malibu,OK,32422 Pacific Coast Hwy,"Malibu, CA 90265",United States,,
3283589,Kings Beach,39.2383327,-120.0278954,"8230 Rainbow Ave, Kings Beach, CA 96143, USA",8230,Rainbow Avenue,Kings Beach,Placer County,California,96143,United States,municipal,City of Kings Beach,OK,8230 Rainbow Ave,"Kings Beach, CA  96143",United States,,
3313096,Carmel Meadows Beach,36.5306409,-121.9245763,"Carmel Meadows, 2575 Ribera Rd, Carmel, CA 93923, USA",2575,Ribera Road,Carmel,Monterey County,California,93923,United States,municipal,City of Carmel,OK,,,,,
3317645,Picnic Beach,33.5440958,-117.7931229,"Picnic Beach, 499 Cliff Dr, Laguna Beach, CA 92651, USA",499,Cliff Drive,Laguna Beach,Orange County,California,92651,United States,municipal,City of Laguna Beach,OK,499 Cliff Dr,"Laguna Beach, CA  92651",United States,,
3322659,Houghton M. Roberts Beach,36.610009,-121.8607571,"2600 Sand Dunes Dr, Monterey, CA 93940, USA",2600,Sand Dunes Drive,Monterey,Monterey County,California,93940,United States,municipal,City of Monterey,OK,Sand Dunes Dr,"Monterey, CA 93940",United States,,
3325337,NBVC Point Mugu Beach,34.0997578,-119.1010748,"4V2X+36, NAS Point Mugu, CA 93042, USA",,,Naval Air Station Point Mugu,Ventura County,California,93042,United States,municipal,City of Naval Air Station Point Mugu,OK,Beach Rd,"Oxnard, CA  93033",United States,,
3365449,Riviera Beach Plaza,33.7645664,-118.1824557,"780 W Shoreline Dr, Long Beach, CA 90802, USA",780,West Shoreline Drive,Alamitos Beach,Los Angeles County,California,90802,United States,municipal,City of Alamitos Beach,OK,380 Beach Access Rd,"Long Beach, CA  90802",United States,,
3413143,Sand Springs Beach,37.855525,-122.4283576,"VH4C+6M Tiburon, CA, USA",,,Tiburon,Marin County,California,,United States,municipal,City of Tiburon,OK,San Francisco Bay,"Tiburon, CA",United States,,
3425377,Goff Island Beach,33.5144651,-117.7601874,"Goff Cove, 9 Montage Way, Laguna Beach, CA 92651, USA",9,Montage Way,Laguna Beach,Orange County,California,92651,United States,municipal,City of Laguna Beach,OK,30801 S Coast Hwy,"Laguna Beach, CA  92651",United States,,
3450731,Deer Creek Beach,34.055602,-118.967433,"43300 Pacific Coast Hwy, Malibu, CA 90265, USA",43300,Pacific Coast Highway,Malibu,Ventura County,California,90265,United States,municipal,City of Malibu,OK,43506 Pacific Coast Hwy,"Malibu, CA 90265",United States,,
3462475,East Beach,34.4120065,-119.6881594,"10 Stearns Wharf, Santa Barbara, CA 93101, USA",10,Stearns Wharf,Santa Barbara,Santa Barbara County,California,93101,United States,municipal,City of Santa Barbara,OK,217–277 Stearns Wharf,"Santa Barbara, CA 93101",United States,,
3516512,Grandview Beach,33.0760195,-117.310161,"1686 Neptune Ave, Encinitas, CA 92024, USA",1686,Neptune Avenue,Leucadia,San Diego County,California,92024,United States,municipal,City of Leucadia,OK,1700 Neptune Ave,"Encinitas, CA  92024",United States,,
3570518,Rincon Beach,34.3252299,-119.396013,"4668 Pacific Coast Hwy, Ventura, CA 93001, USA",4668,Pacific Coast Highway,Ventura,Ventura County,California,93001,United States,municipal,City of Ventura,OK,4526–4672 Pacific Coast Hwy,"Ventura, CA  93001",United States,,
3594578,Crescent Beach Overlook,41.707165,-124.143791,"PV44+VF Bertsch-Oceanview, CA, USA",,,Bertsch-Oceanview,Del Norte County,California,95531,United States,municipal,City of Bertsch-Oceanview,OK,,,,,
3648766,Lake Tahoe Harbor Beach,38.9501812,-119.9604144,"10120 US-50, South Lake Tahoe, CA 96150, USA",10120,U.S. 50,South Lake Tahoe,El Dorado County,California,96150,United States,municipal,City of South Lake Tahoe,OK,"10120 US-50
South Lake Tahoe, CA  96150
United States",,,,
3714034,Houda Point Beach,41.0367435,-124.1192798,"1808 Scenic Dr, Trinidad, CA 95570, USA",1808,Scenic Drive,Trinidad,Humboldt County,California,95570,United States,municipal,City of Trinidad,OK,Scenic Dr,"Trinidad, CA 95570",United States,,
3755539,Huntington City Beach,33.6564104,-118.0037159,"455 Pacific Coast Hwy, Huntington Beach, CA 92648, USA",455,Pacific Coast Highway,Huntington Beach,Orange County,California,92648,United States,municipal,City of Huntington Beach,OK,"Huntington City Beach
Huntington Beach, CA 92648
United States",,,,
3804492,Pelican State Beach,41.991307,-124.2093658,"16850 US-101, Smith River, CA 95567, USA",16850,U.S. 101,Smith River,Del Norte County,California,95567,United States,state,California State Parks,OK,17200 US-101,"Smith River, CA  95567",United States,,
3811721,Marina State Beach,36.6907387,-121.8114924,"M5RQ+7C Marina, CA, USA",,,Marina,Monterey County,California,,United States,state,California State Parks,OK,Reservation Road,"Marina, CA 93933",United States,,
3812893,Hermosa Beach,33.8643578,-118.4034348,"1534 The Strand, Hermosa Beach, CA 90254, USA",1534,The Strand,Hermosa Beach,Los Angeles County,California,90254,United States,municipal,City of Hermosa Beach,OK,Hermosa Avenue & 33rd Street,"Hermosa Beach, CA 90254",United States,,
3834810,Pacific Palisades Beach,34.0384757,-118.5533273,"17128 Pacific Coast Hwy, Pacific Palisades, CA 90272, USA",17128,Pacific Coast Highway,Pacific Palisades,Los Angeles County,California,90272,United States,municipal,City of Pacific Palisades,OK,17366 W Sunset Blvd,"Pacific Palisades, CA 90272",United States,,
3847965,West Beach,34.4102379,-119.6899295,"4599 W Cabrillo Blvd, Santa Barbara, CA 93101, USA",4599,West Cabrillo Boulevard,Santa Barbara,Santa Barbara County,California,93101,United States,municipal,City of Santa Barbara,OK,401 Shoreline Dr,"Santa Barbara, CA  93109",United States,,
3877096,San Simeon Creek Beach,35.5973332,-121.1293242,"HVWC+W7 Cambria, CA, USA",,,Cambria,San Luis Obispo County,California,,United States,municipal,City of Cambria,OK,,,,,
3878954,Manresa State Beach,36.9322572,-121.862728,"345 Seawind Rd, La Selva Beach, CA 95076, USA",345,Seawind Road,La Selva Beach,Santa Cruz County,California,95076,United States,state,California State Parks,OK,1445 San Andreas Rd,"Watsonville, CA 95076",United States,,
3883779,Mattole Beach,40.2835853,-124.3605995,"7JMQ+CQ Petrolia, CA, USA",,,Petrolia,Humboldt County,California,95536,United States,municipal,City of Petrolia,OK,3750 Lighthouse Rd,"Petrolia, CA 95558",United States,,
3905104,Venice Beach,33.9801416,-118.4692247,"2800 Ocean Front Walk, Venice, CA 90291, USA",2800,Ocean Front Walk,Venice,Los Angeles County,California,90291,United States,municipal,City of Venice,OK,1800 Ocean Front Walk,"Santa Monica, CA  90291",United States,,
3970404,Las Tunas Beach,34.0392811,-118.5978805,"Lifeguard Tower, 19444 Pacific Coast Hwy, Malibu, CA 90265, USA",19444,Pacific Coast Highway,Eastern Malibu,Los Angeles County,California,90265,United States,municipal,City of Eastern Malibu,OK,19444 Pacific Coast Hwy,"Malibu, CA  90265",United States,,
3984285,The Wall,35.1779798,-120.7314702,"208 Front St, Avila Beach, CA 93424, USA",208,Front Street,Avila Beach,San Luis Obispo County,California,93424,United States,municipal,City of Avila Beach,OK,101–199 Front St,"Pismo Beach, CA  93424",United States,,
4053497,Monty’s Dog Beach & Bar,33.7553644,-118.1394487,"5000 E Ocean Blvd, Long Beach, CA 90803, USA",5000,East Ocean Boulevard,Belmont Shore,Los Angeles County,California,90803,United States,municipal,City of Belmont Shore,OK,5098 E Ocean Blvd,"Long Beach, CA  90803",United States,,
4155371,Smith River Beach,41.9565377,-124.2076659,"13140 S Indian Rd, Smith River, CA 95567, USA",13140,South Indian Road,Smith River,Del Norte County,California,95567,United States,municipal,City of Smith River,OK,13140 S Indian Rd,"Smith River, CA  95567",United States,,
4173003,Four Mile Beach,36.9664934,-122.1226549,"XV8G+HW Santa Cruz, CA, USA",,,Santa Cruz,Santa Cruz County,California,,United States,municipal,City of Santa Cruz,OK,1401 Coast Rd,"Santa Cruz, CA  95060",United States,,
4182647,Little Black Sands Beach,40.0385863,-124.0798025,"340 Dolphin Dr, Whitethorn, CA 95589, USA",340,Dolphin Drive,Whitethorn,Humboldt County,California,95589,United States,municipal,City of Whitethorn,OK,257 Dolphin Dr,"Whitethorn, CA  95589",United States,,
4220550,White Gulch Beach,38.193439,-122.9464571,"53V3+9C Marshall, CA, USA",,,Marshall,Marin County,California,94940,United States,municipal,City of Marshall,OK,8180 Pierce Point Rd,CA  94937,United States,,
4239044,Brown's Beach,34.9036665,-120.5998601,"WC32+F3 Guadalupe, CA, USA",,,Guadalupe,Santa Barbara County,California,93434,United States,municipal,City of Guadalupe,OK,"Santa Maria, CA  93455",United States,,,
4312284,Beach Now,33.9915722,-118.4780152,"707 Ocean Front Walk, Venice, CA 90291, USA",707,Ocean Front Walk,Venice,Los Angeles County,California,90291,United States,municipal,City of Venice,OK,700 Ocean Front Walk,"Santa Monica, CA  90291",United States,,
4329876,Sharp Park Beach,37.6310586,-122.4946725,"2388 Beach Blvd, Pacifica, CA 94044, USA",2388,Beach Boulevard,Sharp Park,San Mateo County,California,94044,United States,municipal,City of Sharp Park,OK,35 Clarendon Rd,"Pacifica, CA  94044",United States,,
4365615,Cabrillo Beach,33.7112213,-118.2831645,"3753 Shoshonean Rd, San Pedro, CA 90731, USA",3753,Shoshonean Road,San Pedro,Los Angeles County,California,90731,United States,municipal,City of San Pedro,OK,3720 Stephen M White Dr,"San Pedro, CA 90731",United States,,
4372568,Blackie's Beach,33.6091064,-117.9301429,"113 22nd St, Newport Beach, CA 92663, USA",113,22nd Street,Balboa Peninsula,Orange County,California,92663,United States,municipal,City of Balboa Peninsula,OK,W Oceanfront & Newport Balboa Bike Trail,"Newport Beach, CA  92663",United States,,
4397054,East Beach,34.4166106,-119.6668625,"144 E Cabrillo Blvd, Santa Barbara, CA 93101, USA",144,East Cabrillo Boulevard,East Beach,Santa Barbara County,California,93101,United States,municipal,City of East Beach,OK,1400 E Cabrillo Blvd,"Santa Barbara, CA  93108",United States,,
4411973,Wavecrest Beach,37.46511,-122.44443,"20 Kelly Ave, Half Moon Bay, CA 94019, USA",20,Kelly Avenue,Half Moon Bay,San Mateo County,California,94019,United States,municipal,City of Half Moon Bay,OK,95 Kelly Ave,"Half Moon Bay, CA  94019",United States,,
4443616,South Monterey Dunes Beach,36.6034919,-121.8709793,"5 Spray Ave, Monterey, CA 93940, USA",5,Spray Avenue,Del Monte Beach,Monterey County,California,93940,United States,municipal,City of Del Monte Beach,OK,16 Spray Ave,"Monterey, CA  93940",United States,,
4460691,Baker Beach,37.7934398,-122.4837399,"1625 Battery Chamberlin Rd, San Francisco, CA 94129, USA",1625,Battery Chamberlin Road,Presidio of San Francisco,San Francisco County,California,94129,United States,municipal,City of Presidio of San Francisco,OK,1504 Pershing Dr,"San Francisco, CA 94129",United States,,
4467077,Pope Beach,38.9367382,-120.0250393,"WXPF+MX South Lake Tahoe, CA, USA",,,South Lake Tahoe,El Dorado County,California,96150,United States,municipal,City of South Lake Tahoe,OK,"South Lake Tahoe, CA  96150",United States,,,
4467278,Maritime Rocks Accessway,34.0377926,-118.6212504,"Maritime Rocks Accessway at Big Rock Beach, 20466 Pacific Coast Hwy, Malibu, CA 90265, USA",20466,Pacific Coast Highway,Eastern Malibu,Los Angeles County,California,90265,United States,municipal,City of Eastern Malibu,OK,20466 Pacific Coast Hwy,"Malibu, CA  90265",United States,,
4486806,Westward Beach,34.0100744,-118.8166205,"7104 Westward Beach Rd, Malibu, CA 90265, USA",7104,Westward Beach Road,Central Malibu,Los Angeles County,California,90265,United States,municipal,City of Central Malibu,OK,7103 Westward Beach Rd,"Malibu, CA  90265",United States,,
4507218,Lost coast,40.4157402,-124.3972474,"26841 Mattole Rd, Ferndale, CA 95536, USA",26841,Mattole Road,Ferndale,Humboldt County,California,95536,United States,municipal,City of Ferndale,OK,17213–17469 Mattole Rd,"Ferndale, CA  95536",United States,,
4534569,Mondos Beach,34.3210787,-119.3748128,"3560 Pacific Coast Hwy, Ventura, CA 93001, USA",3560,Pacific Coast Highway,Ventura,Ventura County,California,93001,United States,municipal,City of Ventura,OK,,,,,
4548831,Del Valle East Shore Beach,37.5843124,-121.6993474,"7000 Del Valle Rd, Livermore, CA 94550, USA",7000,Del Valle Road,Livermore,Alameda County,California,94550,United States,municipal,City of Livermore,OK,,,,,
4551923,38th Ave. Beach,36.9587054,-121.9673395,"38th Ave. Beach, 23801 E Cliff Dr, Santa Cruz, CA 95062, USA",23801,East Cliff Drive,Opal Cliffs,Santa Cruz County,California,95062,United States,municipal,City of Opal Cliffs,OK,,,,,
4585948,San Clemente City Beach,33.4289455,-117.63013,"1507 Buena Vista #7, San Clemente, CA 92672, USA",1507,Buena Vista,San Clemente,Orange County,California,92672,United States,municipal,City of San Clemente,OK,620 Avenida Del Mar,"San Clemente, CA  92672",United States,,
4596578,Teachers Beach,38.1139262,-122.8697443,"240 Camino Del Mar, Inverness, CA 94937, USA",240,Camino Del Mar,Inverness,Marin County,California,94937,United States,municipal,City of Inverness,OK,190 Camino del Mar,"Inverness, CA  94937",United States,,
4597531,Topanga Beach,34.038818,-118.5815549,"Parking lot, 18700 Pacific Coast Hwy, Malibu, CA 90265, USA",18700,Pacific Coast Highway,Topanga,Los Angeles County,California,90265,United States,municipal,City of Topanga,OK,18700 Pacific Coast Hwy,"Malibu, CA  90265",United States,,
4598113,Lake Anza ,37.8954698,-122.251044,"Lake Anza, California 94708, Berkeley, CA 94708, USA",,,Berkeley,Contra Costa County,California,94708,United States,municipal,City of Berkeley,OK,"Lake Anza Road
Berkeley, CA 94708
United States",,,,
4615237,Moonlight State Beach,33.0478595,-117.2983485,"430-452 Moonlight Ln, Encinitas, CA 92024, USA",430-452,Moonlight Lane,Encinitas,San Diego County,California,92024,United States,state,California State Parks,OK,400 B St,"Encinitas, CA  92024",United States,,
4641200,Pinebrook Beach,38.2362711,-120.3418096,"2093 Flanders Dr, Arnold, CA 95223, USA",2093,Flanders Drive,Arnold,Calaveras County,California,95223,United States,municipal,City of Arnold,OK,2093 Flanders Dr,"Arnold, CA  95247",United States,,
4641976,Aliso Beach,33.508579,-117.7513893,"1 Camel Point Dr, Laguna Beach, CA 92651, USA",1,Camel Point Drive,Laguna Beach,Orange County,California,92651,United States,municipal,City of Laguna Beach,OK,30802 S Coast Hwy,Unit E3,"Laguna Beach, CA  92651",United States,
4648105,Cooks Beach,38.789391,-123.5607317,"47021 Pirates Dr, Gualala, CA 95445, USA",47021,Pirates Drive,Gualala,Mendocino County,California,95445,United States,municipal,City of Gualala,OK,"Gualala, CA  95445",United States,,,
4653602,Humboldt Island,33.721229,-118.062815,"16632 Carousel Ln, Huntington Beach, CA 92649, USA",16632,Carousel Lane,Huntington Beach,Orange County,California,92649,United States,municipal,City of Huntington Beach,OK,16632 Carousel Ln,"Huntington Beach, CA  92649",United States,,
4704404,Centerville Beach County Park,40.5740554,-124.3493461,"3587 Centerville Rd, Ferndale, CA 95536, USA",3587,Centerville Road,Ferndale,Humboldt County,California,95536,United States,county,Humboldt County County,OK,Centerville Rd,"Ferndale, CA  95536",United States,,
4724792,Shell Beach,38.116512,-122.8734434,"448G+JJ Inverness, CA, USA",,,Inverness,Marin County,California,,United States,municipal,City of Inverness,OK,3093 N Highway One,"Bodega Bay, CA  94923",United States,,
4772579,Depressions Beach,34.407936,-119.852568,"Tecolote House, 877, Isla Vista, CA 93117, USA",877,,Isla Vista,Santa Barbara County,California,93117,United States,municipal,City of Isla Vista,OK,,,,,
4803034,South Salmon Creek Beach,38.3393611,-123.0680577,"8WQJ+PQ Salmon Creek, CA, USA",,,Salmon Creek,Sonoma County,California,94923,United States,municipal,City of Salmon Creek,OK,"Bodega Bay, CA  94923",United States,,,
4828827,Law Street Beach,32.6840264,-117.1854857,"685 Ocean Blvd, Coronado, CA 92118, USA",685,Ocean Boulevard,Coronado,San Diego County,California,92118,United States,municipal,City of Coronado,OK,671 Ocean Blvd,Ste 601,"Coronado, CA  92118",United States,
4834338,Marshall's Beach,37.8016715,-122.4796807,"RG2C+M4 Presidio of San Francisco, San Francisco, CA, USA",,,Presidio of San Francisco,San Francisco County,California,,United States,municipal,City of Presidio of San Francisco,OK,,,,,
4841255,Italian Gardens,33.4096596,-118.3818386,"CJ59+V7 Avalon, CA, USA",,,Avalon,Los Angeles County,California,90704,United States,municipal,City of Avalon,OK,Santa Catalina Island,"Santa Catalina Island, CA  90704",United States,,
4862130,california surf club,33.8440104,-118.3936099,"239 N Harbor Dr, Redondo Beach, CA 90277, USA",239,North Harbor Drive,South Redondo,Los Angeles County,California,90277,United States,municipal,City of South Redondo,OK,239 N Harbor Dr,"Redondo Beach, CA  90277",United States,,
4882238,Miramar Beach,37.4962295,-122.4631999,"115 Magellan Ave, El Granada, CA 94018, USA",115,Magellan Avenue,El Granada,San Mateo County,California,94018,United States,municipal,City of El Granada,OK,131 Mirada Rd,"Half Moon Bay, CA  94019",United States,,
4937506,Calawee Cove,38.866185,-120.0123747,"1590 Arapahoe St, South Lake Tahoe, CA 96150, USA",1590,Arapahoe Street,South Lake Tahoe,El Dorado County,California,96150,United States,municipal,City of South Lake Tahoe,OK,2711–2785 US-50,"South Lake Tahoe, CA  96150",United States,,
5002892,Pismo State Beach,35.0866245,-120.6299686,"39PC+J2 Oceano, CA, USA",,,Oceano,San Luis Obispo County,California,,United States,state,California State Parks,OK,"555 Pier Avenue
Oceano, CA  93445
United States",,,,
5011046,Fish Rock Beach at Anchor Bay,38.8029333,-123.5802496,"35300 CA-1, Gualala, CA 95445, USA",35300,California 1,Gualala,Mendocino County,California,95445,United States,municipal,City of Gualala,OK,"35400 California 1
Gualala, CA  95445
United States",,,,
5092727,West End Beach,39.3217253,-120.289614,"West End Beach, 15888 S Shore Dr, Truckee, CA 96161, USA",15888,South Shore Drive,Truckee,Nevada County,California,96161,United States,municipal,City of Truckee,OK,15888 S Shore Dr,"Truckee, CA  96161",United States,,
5132557,Pinnacle Beach,38.306845,-123.018258,"943 Sea Eagle Loop, Bodega Bay, CA 94923, USA",943,Sea Eagle Loop,Bodega Bay,Sonoma County,California,94923,United States,municipal,City of Bodega Bay,OK,943 Sea Eagle Loop,"Bodega Bay, CA 94923",United States,,
5144045,Bill’s Beach,36.6083108,-121.9518632,"17 17 Mile Dr, Pebble Beach, CA 93953, USA",17,17 Mile Drive,Pebble Beach,Monterey County,California,93953,United States,municipal,City of Pebble Beach,OK,75–85 17 Mile Dr,"Pebble Beach, CA  93953",United States,,
5148963,Whaler's Cove,36.5204806,-121.9431647,"G3C4+5P Carmel Highlands, CA, USA",,,Carmel Highlands,Monterey County,California,93923,United States,municipal,City of Carmel Highlands,OK,North Shore Trail,"Carmel, CA  93923",United States,,
5167728,China Cove Beach,33.5984654,-117.879655,"189 Carnation Ave, Corona Del Mar, CA 92625, USA",189,Carnation Avenue,Corona Del Mar,Orange County,California,92625,United States,municipal,City of Corona Del Mar,OK,2609 Cove St,"Newport Beach, CA 92625",United States,,
5177563,Pantai Bahagia,33.5381707,-115.9822747,"G2Q9+73 Desert Camp, CA, USA",,,Desert Camp,Riverside County,California,92254,United States,municipal,City of Desert Camp,OK,"Mecca, CA  92254",United States,,,
5233983,Monument Point,33.5435544,-117.7926309,"Picnic Cove, 399, 361 Cliff Dr, Laguna Beach, CA 92651, USA",361,Cliff Drive,Laguna Beach,Orange County,California,92651,United States,municipal,City of Laguna Beach,OK,375 Cliff Dr,"Laguna Beach, CA  92651",United States,,
5234224,Mermaid Beach,33.52007,-117.76407,"Mermaid Beach, Victoria Dr, Laguna Beach, CA 92651, USA",,Victoria Drive,Laguna Beach,Orange County,California,92651,United States,municipal,City of Laguna Beach,OK,2703 Victoria Dr,"Laguna Beach, CA  92651",United States,,
5265131,Mission Bay Beach,32.7927085,-117.2095899,"3500 Mission Bay Dr., San Diego, CA 92109, USA",3500,Mission Bay Drive,Mission Bay,San Diego County,California,92109,United States,municipal,City of Mission Bay,OK,2688 E Mission Bay Dr,"San Diego, CA  92109",United States,,
5272977,Visit Carlsbad,33.1185228,-117.2366766,"6200 Flying Leo Carrillo Ln, Carlsbad, CA 92009, USA",6200,Flying Leo Carrillo Lane,Carlsbad,San Diego County,California,92009,United States,municipal,City of Carlsbad,OK,,,,,
5326104,Bass Rock Beach,34.0656632,-118.9956558,"10328 Pacific Coast Hwy, Malibu, CA 90265, USA",10328,Pacific Coast Highway,Malibu,Ventura County,California,90265,United States,municipal,City of Malibu,OK,10018 Pacific Coast Hwy,"Malibu, CA  90265",United States,,
5328331,Baldwin Beach,38.9434225,-120.0683033,"WWVJ+9M Spring Creek, CA, USA",,,Spring Creek,El Dorado County,California,96150,United States,municipal,City of Spring Creek,OK,2200 Baldwin Rd,"South Lake Tahoe, CA  96150",United States,,
5329217,San Simeon State Beach,35.6429986,-121.1878295,"255 Slo San Simeon Rd, Ragged Point, CA 93452, USA",255,Slo San Simeon Road,Ragged Point,San Luis Obispo County,California,93452,United States,state,California State Parks,OK,255 Slo San Simeon Rd,"Ragged Point, CA  93452",United States,,
5330784,Salton Beach,33.4697222,-115.8838889,"F498+VC North Shore, CA, USA",,,North Shore,Riverside County,California,92254,United States,municipal,City of North Shore,OK,"Mecca, CA  92254",United States,,,
5367083,Goat Rock Beach,38.4446486,-123.1268263,"CVVF+V7 Jenner, CA, USA",,,Jenner,Sonoma County,California,95450,United States,municipal,City of Jenner,OK,Goat Rock Beach,CA 94923,United States,,
5369978,Coronado Beach,32.6993736,-117.1704487,"Coronado, 1101 1st St, Coronado, CA 92118, USA",1101,1st Street,Coronado,San Diego County,California,92118,United States,municipal,City of Coronado,OK,1201 First St,"Coronado, CA 92118",United States,,
5385503,Pita Beach,38.2029195,-122.9503066,"623X+5V Dillon Beach, CA, USA",,,Dillon Beach,Marin County,California,,United States,municipal,City of Dillon Beach,OK,8180 Pierce Point Rd,CA  94937,United States,,
5390893,"Del Mar Beach, California, USA",32.9551176,-117.2673707,"100 11th St, Del Mar, CA 92014, USA",100,11th Street,Del Mar,San Diego County,California,92014,United States,municipal,City of Del Mar,OK,1104 Camino del Mar,"Del Mar, CA  92014",United States,,
5399718,Padaro Beach,34.4129315,-119.5778909,"2825 Padaro Ln, Carpinteria, CA 93013, USA",2825,Padaro Lane,Carpinteria,Santa Barbara County,California,93013,United States,municipal,City of Carpinteria,OK,2825 Padaro Ln,"Carpinteria, CA  93013",United States,,
5514311,Arched Rock Beach,38.3663518,-123.0724441,"9W8H+G2 Carmet, CA, USA",,,Carmet,Sonoma County,California,94923,United States,municipal,City of Carmet,OK,Highway One,"Bodega Bay, CA 94923",United States,,
5534332,Coleman Beach,38.3628923,-123.0699635,"4217 CA-1, Bodega Bay, CA 94923, USA",4217,California 1,Bodega Bay,Sonoma County,California,94923,United States,municipal,City of Bodega Bay,OK,Coleman Valley Rd and Highway 1,"Bodega Bay, CA 94923",United States,,
5546689,Santa Monica Beach,34.0398115,-118.5783523,"18552 Pacific Coast Hwy, Malibu, CA 90265, USA",18552,Pacific Coast Highway,Topanga,Los Angeles County,California,90265,United States,municipal,City of Topanga,OK,18552 Pacific Coast Hwy,"Malibu, CA  90090",United States,,
5561112,All Things Malibu,34.0911626,-118.8165787,"327 Kanan Dume Rd, Malibu, CA 90265, USA",327,Kanan Dume Road,Malibu,Los Angeles County,California,90265,United States,municipal,City of Malibu,OK,,,,,
5565580,"Seal Rock, Pebble Beach",36.5877361,-121.9644594,"H2QP+36 Del Monte Forest, CA, USA",,,Del Monte Forest,Monterey County,California,,United States,municipal,City of Del Monte Forest,OK,Bird Rock Point to Fan Shell Beach,"Del Monte Forest, CA",United States,,
5584839,Miwok Beach,38.3604718,-123.0688911,"3095 CA-1, Bodega Bay, CA 94923, USA",3095,California 1,Bodega Bay,Sonoma County,California,94923,United States,municipal,City of Bodega Bay,OK,Miwok Beach,CA 94923,United States,,
5610069,Tide Pools,37.2315072,-122.4121141,"11800 CA-1, Pescadero, CA 94060, USA",11800,California 1,Pescadero,San Mateo County,California,94060,United States,municipal,City of Pescadero,OK,,,,,
5713362,Shell Beach,32.8487736,-117.2762042,"1000 Coast Blvd, La Jolla, CA 92037, USA",1000,Coast Boulevard,La Jolla,San Diego County,California,92037,United States,municipal,City of La Jolla,OK,"La Jolla, CA 92037",United States,,,
5752813,Malibu Colony Beach,34.0318786,-118.6880654,"23554 Malibu Rd, Malibu, CA 90265, USA",23554,Malibu Road,Eastern Malibu,Los Angeles County,California,90265,United States,municipal,City of Eastern Malibu,OK,23570 Malibu Colony Rd,"Malibu, CA  90265",United States,,
5768930,Crissy Field East Beach,37.8062577,-122.4514461,"3698 Yacht Rd #3650, San Francisco, CA 94123, USA",3698,Yacht Road,Presidio of San Francisco,San Francisco County,California,94123,United States,municipal,City of Presidio of San Francisco,OK,Crissy Field Promenade,"San Francisco, CA  94118",United States,,
5785861,Point San Pedro Beach,37.5940272,-122.5209581,"HFVH+JJ Pacifica, CA, USA",,,Pacifica,San Mateo County,California,94044,United States,municipal,City of Pacifica,OK,5200 Coast Hwy,"Pacifica, CA  94044",United States,,
5795618,Silver Strand Beach,34.1505961,-119.2183971,"901 Ocean Dr, Oxnard, CA 93035, USA",901,Ocean Drive,Silver Strand,Ventura County,California,93035,United States,municipal,City of Silver Strand,OK,100 Ocean Dr,"Oxnard, CA  93035",United States,,
5815707,Gibson Beach,36.5068955,-121.9388415,"29112 CA-1, Carmel-By-The-Sea, CA 93923, USA",29112,California 1,Carmel-by-the-Sea,Monterey County,California,93923,United States,municipal,City of Carmel-by-the-Sea,OK,Gibson Beach Trail,"Carmel, CA  93923",United States,,
5841182,Tide Beach Park,32.997021,-117.276207,"417 Pacific Ave, Solana Beach, CA 92075, USA",417,Pacific Avenue,Solana Beach,San Diego County,California,92075,United States,municipal,City of Solana Beach,OK,302 Solana Vista Drive,"Solana Beach, CA 92075",United States,,
5844897,Hare Creek Beach,39.4179182,-123.8114665,"31201 Bay View Ave, Fort Bragg, CA 95437, USA",31201,Bay View Avenue,Fort Bragg,Mendocino County,California,95437,United States,municipal,City of Fort Bragg,OK,31201 Bay View Ave,"Fort Bragg, CA  95437",United States,,
5909151,Limantour Beach,38.0245149,-122.8793335,"24FC+R7 Inverness, CA, USA",,,Inverness,Marin County,California,,United States,municipal,City of Inverness,OK,Limantour Rd,"Inverness, CA 94937",United States,,
5932073,Long Point Beach,33.4071197,-118.3691776,"CJ4J+R8 Avalon, CA, USA",,,Avalon,Los Angeles County,California,90704,United States,municipal,City of Avalon,OK,Santa Catalina Island,"Santa Catalina Island, CA 90704",United States,,
5951020,Robert W. Crown Memorial State Beach,37.7600514,-122.2671612,"301 Harbor Light Rd, Alameda, CA 94501, USA",301,Harbor Light Road,West Alameda,Alameda County,California,94501,United States,state,California State Parks,OK,1883 Shore Line Dr,"Alameda, CA 94501",United States,,
5952382,Vespucci Beach,33.9905569,-118.4793624,"998 Ocean Front Walk, Venice, CA 90291, USA",998,Ocean Front Walk,Venice,Los Angeles County,California,90291,United States,municipal,City of Venice,OK,"Los Angeles, CA",United States,,,
5954692,Hug Deli,34.003289,-118.489428,"2G36+56 Vball Courts!, Santa Monica, CA 90401, USA",,,Ocean Park,Los Angeles County,California,90401,United States,municipal,City of Ocean Park,OK,2576–2588 Ocean Front Walk,"Santa Monica, CA  90405",United States,,
6023791,Lovers Point Beach,36.6259297,-121.9160825,"Lovers Point Park, 631 Ocean View Blvd, Pacific Grove, CA 93950, USA",631,Ocean View Boulevard,Pacific Grove,Monterey County,California,93950,United States,municipal,City of Pacific Grove,OK,631 Ocean View Blvd,"Pacific Grove, CA  93950",United States,,
6024456,North Manhattan Beach,33.9009918,-118.4207082,"105 38th St, Manhattan Beach, CA 90266, USA",105,38th Street,El Porto,Los Angeles County,California,90266,United States,municipal,City of El Porto,OK,3738 Highland Ave,"Manhattan Beach, CA  90266",United States,,
6056091,San Gregorio Beach,37.415495,-122.423224,"2475 Cabrillo Hwy S, Half Moon Bay, CA 94019, USA",2475,Cabrillo Highway South,Half Moon Bay,San Mateo County,California,94019,United States,municipal,City of Half Moon Bay,OK,Cabrillo Hwy S,"Half Moon Bay, CA  94019",United States,,
6092850,Indian Beach,33.6785059,-117.2506535,"23406 Continental Way, Canyon Lake, CA 92587, USA",23406,Continental Way,Canyon Lake,Riverside County,California,92587,United States,municipal,City of Canyon Lake,OK,23380 Continental Dr,"Canyon Lake, CA  92587",United States,,
6119906,Reedley Beach,36.5862772,-119.4593668,"18440 W Olson Ave, Reedley, CA 93654, USA",18440,West Olson Avenue,Reedley,Fresno County,California,93654,United States,municipal,City of Reedley,OK,10300 Kings River Rd,"Reedley, CA  93654",United States,,
6147874,Limantour Beach,38.0280339,-122.8986205,"24H2+6H Inverness, CA, USA",,,Inverness,Marin County,California,,United States,municipal,City of Inverness,OK,Limantour Rd,"Inverness, CA  94937",United States,,
6190447,Dillon Beach,38.2496943,-122.967908,"60 Beach Ave, Dillon Beach, CA 94929, USA",60,Beach Avenue,Dillon Beach,Marin County,California,94929,United States,municipal,City of Dillon Beach,OK,1–99 Cliff Rd,"Dillon Beach, CA 94929",United States,,
6226444,Poplar Beach,37.4552756,-122.4448064,"Parking lot, 100 Poplar St, Half Moon Bay, CA 94019, USA",100,Poplar Street,Half Moon Bay,San Mateo County,California,94019,United States,municipal,City of Half Moon Bay,OK,Poplar St,"Half Moon Bay, CA 94019",United States,,
6228407,Bolinas Beach,37.9061979,-122.6832018,"71 Cresente Ave, Bolinas, CA 94924, USA",71,Cresente Avenue,Bolinas,Marin County,California,94924,United States,municipal,City of Bolinas,OK,60 Crescente Ave,"Bolinas, CA  94924",United States,,
6234125,Hidden Beach,36.9577752,-121.8890351,"770 Cliff Dr, Aptos, CA 95003, USA",770,Cliff Drive,Aptos,Santa Cruz County,California,95003,United States,municipal,City of Aptos,OK,,,,,
6245613,Monastery Beach,36.5236996,-121.9265056,"27951 CA-1, Carmel, CA 93923, USA",27951,California 1,Carmel,Monterey County,California,93923,United States,municipal,City of Carmel,OK,27951 CA-1,"Carmel, CA  93923",United States,,
6257700,Oceanside Habor,33.180407,-117.354074,"1257 Chambord Ct, Oceanside, CA 92054, USA",1257,Chambord Court,South Oceanside,San Diego County,California,92054,United States,municipal,City of South Oceanside,OK,I-5 S,"Oceanside, CA  92054",United States,,
6315980,El Porto Beach,33.9045002,-118.4229398,"Manhattan Beach, 4499-4401 The Strand, Manhattan Beach, CA 90266, USA",4499-4401,The Strand,El Porto,Los Angeles County,California,90266,United States,municipal,City of El Porto,OK,,,,,
6338031,Crystal Cove State Beach,33.5680969,-117.8342056,"7846 East Coast Hwy, Newport Beach, CA 92657, USA",7846,East Coast Highway,Newport Beach,Orange County,California,92657,United States,state,California State Parks,OK,,,,,
6353454,Mauren Beach,40.812292,-124.196904,"RR63+W6 Samoa, CA, USA",,,Samoa,Humboldt County,California,,United States,municipal,City of Samoa,OK,,,,,
6371103,Doheny State Beach,33.4621064,-117.6869982,"25300 Dana Point Harbor Dr, Dana Point, CA 92629, USA",25300,Dana Point Harbor Drive,Dana Point,Orange County,California,92629,United States,state,California State Parks,OK,25300 Dana Point Harbor Dr,"Dana Point, CA  92629",United States,,
6377780,Table Tops,32.9979293,-117.2764564,"505 Pacific Ave, Solana Beach, CA 92075, USA",505,Pacific Avenue,Solana Beach,San Diego County,California,92075,United States,municipal,City of Solana Beach,OK,517 Pacific Ave,"Solana Beach, CA  92075",United States,,
6385439,Surfers Beach,37.499735,-122.468267,"555 Obispo Rd, El Granada, CA 94018, USA",555,Obispo Road,El Granada,San Mateo County,California,94018,United States,municipal,City of El Granada,OK,4000 N Cabrillo Hwy,"Half Moon Bay, CA  94019",United States,,
6400925,Pebble Beach,36.5677354,-121.9494824,"1500 Palmero Way, Pebble Beach, CA 93953, USA",1500,Palmero Way,Pebble Beach,Monterey County,California,93953,United States,municipal,City of Pebble Beach,OK,"17 Mile Dr
Pebble Beach, CA  93953
United States",,,,
6412980,Salt Creek Beach,33.4773869,-117.7230797,"21 Ritz Cove Dr, Dana Point, CA 92629, USA",21,Ritz Cove Drive,Monarch Beach,Orange County,California,92629,United States,municipal,City of Monarch Beach,OK,3 Monarch Cove Rd,"Dana Point, CA  92629",United States,,
6425763,Kiddie Beach Park,34.1598029,-119.222042,"Kiddie Beach Park, 2721 Victoria Ave, Oxnard, CA 93035, USA",2721,Victoria Avenue,Hollywood,Ventura County,California,93035,United States,municipal,City of Hollywood,OK,2974 S Victoria Ave,"Oxnard, CA 93035",United States,,
6426310,Sunset Beach,34.0380445,-118.5560042,"Pacific Coast Hwy / Sunset, Los Angeles, CA 90272, USA",,,Pacific Palisades,Los Angeles County,California,90272,United States,municipal,City of Pacific Palisades,OK,"Pacific Palisades, CA 90272",United States,,,
6436260,Pelican Point,33.5793461,-117.8522823,"Crystal Cove Trail, Crystal Cove Trail, Newport Beach, CA 92657, USA",,Crystal Cove Trail,Newport Coast,Orange County,California,92657,United States,municipal,City of Newport Coast,OK,P-2 Stairs,"Newport Beach, CA",United States,,
6444464,Regan Beach,38.9443821,-119.9860239,"3199 Sacramento Ave, South Lake Tahoe, CA 96150, USA",3199,Sacramento Avenue,Al Tahoe,El Dorado County,California,96150,United States,municipal,City of Al Tahoe,OK,3199 Sacramento Ave,"South Lake Tahoe, CA  96150",United States,,
6452599,Camel Point Beach,33.5068111,-117.7502275,"31351 Coast Hwy, Laguna Beach, CA 92651, USA",31351,Coast Highway,Laguna Beach,Orange County,California,92651,United States,municipal,City of Laguna Beach,OK,"Laguna Beach, CA  92651",United States,,,
6500863,Brook's Landing,33.2656391,-119.4970193,85527G83+75,,,,,,,,municipal,,OK,San Nicolas Island,CA,United States,,
6525233,Huntington Cliffs,33.67151,-118.0231286,"20211 CA-1, Huntington Beach, CA 92648, USA",20211,California 1,Huntington Beach,Orange County,California,92648,United States,municipal,City of Huntington Beach,OK,20211 Pacific Coast Hwy,"Huntington Beach, CA  92648",United States,,
6542203,Sunset Beach,33.7182907,-118.0732652,"16731 S Pacific Ave., Sunset Beach, CA 90742, USA",16731,South Pacific Avenue,Sunset Beach,Orange County,California,90742,United States,municipal,City of Sunset Beach,OK,16733 S Pacific Ave,"Sunset Beach, CA  90742",United States,,
6545056,Laguna Main Beach,33.5405915,-117.7832651,"509 S Coast Hwy, Laguna Beach, CA 92651, USA",509,South Coast Highway,Laguna Beach,Orange County,California,92651,United States,municipal,City of Laguna Beach,OK,425 S Coast Hwy,"Laguna Beach, CA  92651",United States,,
6576048,Arroyo Laguna Beach,35.65213,-121.2216,"MQ2H+V9 San Simeon, CA, USA",,,San Simeon,San Luis Obispo County,California,93452,United States,municipal,City of San Simeon,OK,Arroyo Laguna Beach Trail,"Ragged Point, CA  93452",United States,,
6651095,Pine Island Beach,39.23303,-121.2122183,"19754 Chaparral Cir, Penn Valley, CA 95946, USA",19754,Chaparral Circle,Penn Valley,Nevada County,California,95946,United States,municipal,City of Penn Valley,OK,19754 Chaparral Cir,"Penn Valley, CA  95946",United States,,
6658007,Ten Mile River,39.5418779,-123.7703976,"G6RH+QR Inglenook, CA, USA",,,Inglenook,Mendocino County,California,95437,United States,municipal,City of Inglenook,OK,"Mendocino County, CA",United States,,,
6668540,China Rock,36.616907,-121.932139,"850 17 Mile Dr, Pacific Grove, CA 93950, USA",850,17 Mile Drive,Pacific Grove,Monterey County,California,93950,United States,municipal,City of Pacific Grove,OK,850 17 Mile Dr,"Pacific Grove, CA  93950",United States,,
6678279,Surfside Beach,33.7256795,-118.0824037,"49 Surfside Ave., Surfside, CA 90743, USA",49,Surfside Avenue,Surfside,Orange County,California,90743,United States,municipal,City of Surfside,OK,1 Surfside Ave,"Surfside, CA 90743",United States,,
6702536,El Segundo Beach,33.9160309,-118.4293985,"12793 Vista Del Mar, Playa Del Rey, CA 90293, USA",12793,Vista Del Mar,Playa del Rey,Los Angeles County,California,90293,United States,municipal,City of Playa del Rey,OK,,,,,
6717363,Crissy Field South Beach,37.8062455,-122.4543404,"RG4W+F7 Presidio of San Francisco, San Francisco, CA, USA",,,Presidio of San Francisco,San Francisco County,California,,United States,municipal,City of Presidio of San Francisco,OK,Crissy Field Promenade,"San Francisco, CA",United States,,
6726953,China Beach,37.7879627,-122.4911857,"340 Sea Cliff Ave, San Francisco, CA 94121, USA",340,Sea Cliff Avenue,Sea Cliff,San Francisco County,California,94121,United States,municipal,City of Sea Cliff,OK,South Bay,"San Francisco, CA",United States,,
6754273,William Randolph Hearst Memorial State Beach,35.5931431,-121.1256478,"HVVF+7P Cambria, CA, USA",,,Cambria,San Luis Obispo County,California,,United States,state,California State Parks,OK,Cabrillo Hwy,"Cambria, CA 93428",United States,,
6762614,Clam Beach,41.0162007,-124.1142798,"2V8P+F7 McKinleyville, CA, USA",,,McKinleyville,Humboldt County,California,95519,United States,municipal,City of McKinleyville,OK,"McKinleyville, CA  95519",United States,,,
6764575,Hobie Beach,34.1611503,-119.2220442,"4201 Victoria Ave, Oxnard, CA 93035, USA",4201,Victoria Avenue,Hollywood,Ventura County,California,93035,United States,municipal,City of Hollywood,OK,2974-3098 Victoria Ave,"Oxnard, CA  93035",United States,,
6786583,Chapman Estate,35.15332,-120.674545,"1243 Ocean Blvd, Pismo Beach, CA 93449, USA",1243,Ocean Boulevard,Shell Beach,San Luis Obispo County,California,93449,United States,municipal,City of Shell Beach,OK,1243 Ocean Blvd,"Pismo Beach, CA  93449",United States,,
6811197,Panther Beach,36.9910635,-122.1688742,"XRRJ+CF Davenport, CA, USA",,,Davenport,Santa Cruz County,California,95017,United States,municipal,City of Davenport,OK,10 Miles Hwy 1 N,"Santa Cruz, CA 95067",United States,,
6813170,Fort Funston,37.719179,-122.5051228,"Fort Funston, Sunset Trail, San Francisco, CA 94132, USA",,Sunset Trail,Lakeshore,San Francisco County,California,94132,United States,municipal,City of Lakeshore,OK,"San Francisco, CA  94132",United States,,,
6830335,Little Corona del Mar Beach,33.5900884,-117.8691038,"212 Hazel Dr, Corona Del Mar, CA 92625, USA",212,Hazel Drive,Corona Del Mar,Orange County,California,92625,United States,municipal,City of Corona Del Mar,OK,3100 Ocean Blvd,"Corona Del Mar, CA 92625",United States,,
6830586,Pillar Point Harbor Beach,37.5034293,-122.4796143,"2 Johnson Pier, Half Moon Bay, CA 94019, USA",2,Johnson Pier,Half Moon Bay,San Mateo County,California,94019,United States,municipal,City of Half Moon Bay,OK,4000 Cabrillo Hwy N,"Half Moon Bay, CA 94019",United States,,
6855132,Tiffany Beach,37.8506455,-122.4793625,"325 Bridgeway, Sausalito, CA 94965, USA",325,Bridgeway,Sausalito,Marin County,California,94965,United States,municipal,City of Sausalito,OK,Richardson Street,"Sausalito, CA 94965",United States,,
6857846,Bombay Beach,33.350668,-115.7175908,"972J+7X Bombay Beach, CA, USA",,,Bombay Beach,Imperial County,California,92257,United States,municipal,City of Bombay Beach,OK,9518 Avenue B,"Niland, CA  92257",United States,,
6914339,Hammonds Beach,34.416646,-119.6351373,"1451 Bonnymede Dr, Montecito, CA 93108, USA",1451,Bonnymede Drive,Montecito,Santa Barbara County,California,93108,United States,municipal,City of Montecito,OK,Eucalyptus Ln and Edgecliff Ln,"Montecito, CA 93108",United States,,
6919301,Aeneas Beach,36.6119558,-121.8974827,"300 Cannery Row, Monterey, CA 93940, USA",300,Cannery Row,Monterey,Monterey County,California,93940,United States,municipal,City of Monterey,OK,300 Cannery Row,"Monterey, CA  93940",United States,,
6919647,Malibu Beaches,34.002873,-118.804924,"Point Dume, Cliffside Dr &, Birdview Ave, Malibu, CA 90265, USA",,Birdview Avenue,Central Malibu,Los Angeles County,California,90265,United States,municipal,City of Central Malibu,OK,23825 Stuart Ranch Road,"Malibu, CA  90265-4861",United States,,
6950869,Arroyo Quemada Beach,34.4685219,-120.1137185,"192 Arroyo Quemada Ln, Goleta, CA 93117, USA",192,Arroyo Quemada Lane,Goleta,Santa Barbara County,California,93117,United States,municipal,City of Goleta,OK,89–199 Arroyo Quemada Ln,"Goleta, CA  93117",United States,,
6953070,China Ladder Beach,37.0675406,-122.2565867,"1551 CA-1, Davenport, CA 95017, USA",1551,California 1,Davenport,Santa Cruz County,California,95017,United States,municipal,City of Davenport,OK,CA-1,CA,United States,,
6966063,Buccaneer Beach,33.1767482,-117.3691267,"1530124900, Oceanside, CA 92054, USA",,,Oceanside,San Diego County,California,92054,United States,municipal,City of Oceanside,OK,1500 S Pacific St,"Oceanside, CA  92054",United States,,
6974265,La Senda And Bay Drive Beach,33.4887096,-117.7351602,"35 Bay Dr, Laguna Beach, CA 92651, USA",35,Bay Drive,Laguna Beach,Orange County,California,92651,United States,municipal,City of Laguna Beach,OK,35 Bay Dr,"Laguna Beach, CA 92651",United States,,
7000223,Perris Beach,33.862968,-117.1895957,"VR76+55 Moreno Valley, CA, USA",,,Moreno Valley,Riverside County,California,,United States,municipal,City of Moreno Valley,OK,Lake Perris,"Perris, CA 92571",United States,,
7022197,Cameo Shores Beach,33.5870556,-117.8656382,"101 Milford Dr, Corona Del Mar, CA 92625, USA",101,Milford Drive,Corona Del Mar,Orange County,California,92625,United States,municipal,City of Corona Del Mar,OK,101 Milford Dr,"Corona Del Mar, CA 92625",United States,,
7051072,Pacific Beach,32.7961494,-117.2573858,"7 Crystal Pier, San Diego, CA 92109, USA",7,Crystal Pier,Pacific Beach,San Diego County,California,92109,United States,municipal,City of Pacific Beach,OK,700 Grand Ave,"San Diego, CA  92109",United States,,
7055490,Island Beach,36.8047222,-121.7880556,"7540-7548 Sandholdt Rd, Moss Landing, CA 95039, USA",7540-7548,Sandholdt Road,Moss Landing,Monterey County,California,95039,United States,municipal,City of Moss Landing,OK,7454 Sandholdt Rd,"Moss Landing, CA 95039",United States,,
7058195,Arroyo De La Cruz Beach,35.7083111,-121.3077392,"PM5R+8W Ragged Point, CA, USA",,,Ragged Point,San Luis Obispo County,California,93452,United States,municipal,City of Ragged Point,OK,,,,,
7096044,Roosevelt Beach,37.4359,-122.42721,"Hwy 1 & Nurseryman Exchange, Half Moon Bay, CA 94019, USA",,,Half Moon Bay,San Mateo County,California,94019,United States,municipal,City of Half Moon Bay,OK,289 Eagle Trace Dr,"Half Moon Bay, CA  94019",United States,,
7130035,Benicia Public Pier & Beach,38.0440608,-122.1625024,"135 E B St, Benicia, CA 94510, USA",135,East B Street,Benicia,Solano County,California,94510,United States,municipal,City of Benicia,OK,90 1st St,"Benicia, CA  94510",United States,,
7142720,Sculptured Beach,38.0102031,-122.8447146,"2564+34 Inverness, CA, USA",,,Inverness,Marin County,California,,United States,municipal,City of Inverness,OK,"Inverness, CA 94937",United States,,,
7166025,South Casa Beach,32.8463918,-117.2787148,"Sunset Bench, 17 Coast Blvd, La Jolla, CA 92037, USA",17,Coast Boulevard,La Jolla,San Diego County,California,92037,United States,municipal,City of La Jolla,OK,849 Coast Blvd,"La Jolla, CA 92037",United States,,
7187807,Laguna Creek Beach,36.9830405,-122.1554174,"XRMV+6R Majors, CA, USA",,,Majors,Santa Cruz County,California,95060,United States,municipal,City of Majors,OK,Laguna Rd and Cabrillo Hwy,"Santa Cruz, CA 95060",United States,,
7190994,Shell Beach,38.4172502,-123.1055193,"CV8V+WQ Jenner, CA, USA",,,Jenner,Sonoma County,California,95450,United States,municipal,City of Jenner,OK,,,,,
7196391,Venice Beach,37.47959,-122.45093,"6 Venice Blvd, Half Moon Bay, CA 94019, USA",6,Venice Boulevard,Half Moon Bay,San Mateo County,California,94019,United States,municipal,City of Half Moon Bay,OK,Venice Beach Overlook,"Half Moon Bay, CA  94019",United States,,
7206736,Lifeguard Tower 18,33.605827,-117.9243386,"Oceanfront &, Balboa Blvd, 18th St, Newport Beach, CA 92661, USA",,18th Street,Balboa Peninsula,Orange County,California,92661,United States,municipal,City of Balboa Peninsula,OK,18th St & To Newport Beach From 18th St,"Newport Beach, CA  92663",United States,,
7228554,Cowell’s Beach,36.9616202,-122.0244169,"175 W Cliff Dr, Santa Cruz, CA 95060, USA",175,West Cliff Drive,Santa Cruz,Santa Cruz County,California,95060,United States,municipal,City of Santa Cruz,OK,"Pacific Ave and Beach St
Santa Cruz, CA  95060
United States",,,,
7243423,North Star Beach,33.6247954,-117.8933269,"1 Whitecliffs Dr, Newport Beach, CA 92660, USA",1,Whitecliffs Drive,Newport Beach,Orange County,California,92660,United States,municipal,City of Newport Beach,OK,1 Whitecliffs Dr,"Newport Beach, CA  92660",United States,,
7250367,El Sol Beach,34.0417474,-118.9070678,"33600 Pacific Coast Hwy, Malibu, CA 90265, USA",33600,Pacific Coast Highway,Western Malibu,Los Angeles County,California,90265,United States,municipal,City of Western Malibu,OK,33600 Pacific Coast Hwy,"Malibu, CA  90265",United States,,
7264184,Point Reyes Beach North,38.0777702,-122.9744983,"32HG+46 Inverness, CA, USA",,,Inverness,Marin County,California,,United States,municipal,City of Inverness,OK,13275 Sir Francis Drake Blvd,"Inverness, CA  94937",United States,,
7300560,Capistrano Beach,33.4480489,-117.6556027,"35485 Beach Rd, Dana Point, CA 92624, USA",35485,Beach Road,Dana Point,Orange County,California,92624,United States,municipal,City of Dana Point,OK,35005 Beach Rd,"Capo Beach, CA 92675",United States,,
7336997,Cove Beach,37.1170205,-122.309031,"4M8R+R9 Bonny Doon, CA, USA",,,Bonny Doon,Santa Cruz County,California,95060,United States,municipal,City of Bonny Doon,OK,Cove Beach,"Pescadero, CA 94060",United States,,
7337306,Christi Beach,34.0266707,-119.8759362,856224GF+MJ,,,,,,,,municipal,,OK,Santa Cruz Island,CA,United States,,
7347935,Kelham Beach,37.9968137,-122.8217733,"X5WH+P7 Inverness, CA, USA",,,Inverness,Marin County,California,,United States,municipal,City of Inverness,OK,1 Bear Valley Rd,"Point Reyes Station, CA 94956",United States,,
7386318,Starlight Beach,38.54289,-121.56191,"3119 Catalina Island Rd, West Sacramento, CA 95691, USA",3119,Catalina Island Road,West Sacramento,Yolo County,California,95691,United States,municipal,City of West Sacramento,OK,3134 San Nicolas Rd,"West Sacramento, CA  95691",United States,,
7386594,Alameda Point Shoreline,37.7708219,-122.2953144,"250 W Hornet Ave, Alameda, CA 94501, USA",250,West Hornet Avenue,Alameda,Alameda County,California,94501,United States,municipal,City of Alameda,OK,250 W Hornet Ave,"Alameda, CA  94501",United States,,
7451351,Big Rock Beach,34.0365997,-118.6103141,"20000 Pacific Coast Hwy, Malibu, CA 90265, USA",20000,Pacific Coast Highway,Eastern Malibu,Los Angeles County,California,90265,United States,municipal,City of Eastern Malibu,OK,20000 Pacific Coast Highway,"Malibu, CA 90265",United States,,
7493427,Pebble Beach at Bean Hollow State Beach,37.2367349,-122.4159551,"12413 CA-1, Pescadero, CA 94060, USA",12413,California 1,Pescadero,San Mateo County,California,94060,United States,state,California State Parks,OK,"Cabrillo Hwy
Pescadero CA 94060
United States",,,,
7503874,Sycamore Island,36.8545379,-119.8230221,"V53G+RQ Fresno, CA, USA",,,Fresno,Fresno County,California,,United States,municipal,City of Fresno,OK,"Madera, CA  93636",United States,,,
7520091,Ocean & Junipero,33.7629519,-118.1687861,"2100 E Ocean Blvd, Long Beach, CA 90803, USA",2100,East Ocean Boulevard,Alamitos Beach,Los Angeles County,California,90803,United States,municipal,City of Alamitos Beach,OK,30 Junipero Ave,"Long Beach, CA  90803",United States,,
7550866,Steep Ravine Beach,37.8849786,-122.6283342,"V9MC+XM Stinson Beach, CA, USA",,,Stinson Beach,Marin County,California,94970,United States,municipal,City of Stinson Beach,OK,"3301 Shoreline Hwy
Stinson Beach, CA  94970
United States",,,,
7556011,Sneaker Beach,33.506054,-115.918293,"G34J+CM North Shore, CA, USA",,,North Shore,Riverside County,California,92254,United States,municipal,City of North Shore,OK,State Park Rd,"Mecca, CA  92254",United States,,
7579590,Wig Beach,34.095112,-117.7146006,"146 N College Ave, Claremont, CA 91711, USA",146,North College Avenue,Claremont,Los Angeles County,California,91711,United States,municipal,City of Claremont,OK,101 N College Ave,"Claremont, CA  91711",United States,,
7579679,Middle Beach,33.3441302,-118.325597,"315 Crescent Ave, Avalon, CA 90704, USA",315,Crescent Avenue,Avalon,Los Angeles County,California,90704,United States,municipal,City of Avalon,OK,401 Avalon Waterfront,"Avalon, CA 90704",United States,,
7625501,Kiteboard Beach,37.5714091,-122.2786194,"30 Lakeside Dr, Foster City, CA 94404, USA",30,Lakeside Drive,Foster City,San Mateo County,California,94404,United States,municipal,City of Foster City,OK,San Francisco Bay Trail,"Foster City, CA",United States,,
7629278,Otsuchi Point,39.4451707,-123.8152112,"C5WM+3W Fort Bragg, CA, USA",,,Fort Bragg,Mendocino County,California,95437,United States,municipal,City of Fort Bragg,OK,Ka Kahleh Trail,"Fort Bragg, CA  95437",United States,,
7636256,Children's Pool,32.8475343,-117.2785833,"834 Coast Blvd, La Jolla, CA 92037, USA",834,Coast Boulevard,La Jolla,San Diego County,California,92037,United States,municipal,City of La Jolla,OK,850 Coast Blvd,"La Jolla, CA 92037",United States,,
7641905,North Manhattan Beach,33.8882518,-118.4096894,"425 15th St Ste C, Manhattan Beach, CA 90266, USA",425,15th Street,Manhattan Beach,Los Angeles County,California,90266,United States,municipal,City of Manhattan Beach,OK,425 15th St,"Manhattan Beach, CA  90266",United States,,
7650507,Sand City Beach,36.6109635,-121.8595806,"2600 Sand Dunes Dr, Monterey, CA 93940, USA",2600,Sand Dunes Drive,Monterey,Monterey County,California,93940,United States,municipal,City of Monterey,OK,2610 Sand Dunes Dr,"Monterey, CA  93940",United States,,
7653036,Corona del Mar State Beach,33.5933058,-117.8753466,"3031 Ocean Blvd, Corona Del Mar, CA 92625, USA",3031,Ocean Boulevard,Corona Del Mar,Orange County,California,92625,United States,state,California State Parks,OK,"3100 Ocean Blvd
Coronal Del Mar, CA 92625
United States",,,,
7659228,Tecolote Canyon Beach,34.431496,-119.907709,"7925 Hollister Ave, Goleta, CA 93117, USA",7925,Hollister Avenue,Goleta,Santa Barbara County,California,93117,United States,municipal,City of Goleta,OK,7964 Hollister Ave,"Goleta, CA  93117",United States,,
7667652,Beer Can Beach,36.9539376,-121.8849448,"1048 Vía Palo Alto, Aptos, CA 95003, USA",1048,Vía Palo Alto,Aptos,Santa Cruz County,California,95003,United States,municipal,City of Aptos,OK,1094 Via Palo Alto,"Aptos, CA  95003",United States,,
7696843,Natural Bridges State Beach,36.9503719,-122.057333,"Natural Bridges State Beach, 2531 W Cliff Dr, Santa Cruz, CA 95060, USA",2531,West Cliff Drive,Santa Cruz,Santa Cruz County,California,95060,United States,state,California State Parks,OK,2531 W Cliff Dr,"Santa Cruz, CA  95060",United States,,
7762348,Bonny Doon Beach,37.0003829,-122.1815657,"Hwy 1 & Bonny Doon Rd, Davenport, CA 95017, USA",,,Davenport,Santa Cruz County,California,95017,United States,municipal,City of Davenport,OK,"Santa Cruz, CA  95060",United States,,,
7822128,Life's A Beach Camps,32.7863718,-117.2523656,"3862 Bayside Walk, San Diego, CA 92109, USA",3862,Bayside Walk,Mission Beach,San Diego County,California,92109,United States,municipal,City of Mission Beach,OK,3860 Bayside Walk,"San Diego, CA  92109",United States,,
7828112,Pirate’s Cove Beach,33.5940428,-117.8781127,"RNTLS, 2907 Ocean Blvd, Corona Del Mar, CA 92625, USA",2907,Ocean Boulevard,Corona Del Mar,Orange County,California,92625,United States,municipal,City of Corona Del Mar,OK,Heliotrope Ave & Ocean Blv,"Newport Beach, CA 92625",United State,,
7831911,Montage Laguna Beach,33.5135482,-117.7567595,"30799 Coast Hwy, Laguna Beach, CA 92651, USA",30799,Coast Highway,Laguna Beach,Orange County,California,92651,United States,municipal,City of Laguna Beach,OK,30801 S Coast Hwy,"Laguna Beach, CA  92651",United States,,
7835013,Ocean Beach Community Park,32.7444444,-117.2461111,"4741 Santa Monica Ave, San Diego, CA 92107, USA",4741,Santa Monica Avenue,Point Loma,San Diego County,California,92107,United States,municipal,City of Point Loma,OK,4741 Santa Monica Ave,"San Diego, CA  92107",United States,,
7847271,La Jolla Shores,32.856987,-117.257574,"8240 La Vereda, La Jolla, CA 92037, USA",8240,La Vereda,La Jolla,San Diego County,California,92037,United States,municipal,City of La Jolla,OK,"La Vereda Dr
La Jolla, CA 92037
United States",,,,
7878160,Gleason Beach,38.3908783,-123.0859032,"6450 CA-1, Bodega Bay, CA 94923, USA",6450,California 1,Bodega Bay,Sonoma County,California,94923,United States,municipal,City of Bodega Bay,OK,6376–6438 N Highway One,"Bodega Bay, CA  94923",United States,,
7883790,Albany Beach,37.8886496,-122.3165466,"1100 Eastshore Fwy, Albany, CA 94710, USA",1100,Eastshore Freeway,Albany,Alameda County,California,94710,United States,municipal,City of Albany,OK,24 Buchanan St,"Berkeley, CA  94710",United States,,
7889719,Staircase Beach,34.047277,-118.950278,"39996 Pacific Coast Hwy, Malibu, CA 90265, USA",39996,Pacific Coast Highway,Malibu,Ventura County,California,90265,United States,municipal,City of Malibu,OK,Leo Carrillo State Park,40000 Pacific Coast Hwy,"Malibu, CA 90265",United States,
7930440,Amarillo Beach,34.029957,-118.707838,"24436 Malibu Rd, Malibu, CA 90265, USA",24436,Malibu Road,Central Malibu,Los Angeles County,California,90265,United States,municipal,City of Central Malibu,OK,24436 Malibu Rd,"Malibu, CA  90265",United States,,
7999023,Mavericks Beach,37.4956053,-122.4965072,"FGW3+5V Pillar point north, Moss Beach, CA, USA",,,Moss Beach,San Mateo County,California,,United States,municipal,City of Moss Beach,OK,"W Point Ave
Half Moon Bay, CA 94019
United States",,,,
8042160,Oak Bottom Beach,40.6481169,-122.5898246,"12493 State Hwy 299 Hwy, French Gulch, CA 96033, USA",12493,State Highway 299 Highway,French Gulch,Shasta County,California,96033,United States,municipal,City of French Gulch,OK,327 Whiskeytown-Shasta-Trinity Nra,"Whiskeytown, Ca 96095",United States,,
8119639,Kings Beach,39.2365163,-120.0272654,"8298 Brockway Vista Ave, Kings Beach, CA 96143, USA",8298,Brockway Vista Avenue,Kings Beach,Placer County,California,96143,United States,municipal,City of Kings Beach,OK,8246 Brockaway Vista Drive,"Tahoe Vista, CA  96148",United States,,
8135145,Playa Del Rey Beach,33.9573326,-118.4508777,"6900 Pacific Ave, Playa Del Rey, CA 90293, USA",6900,Pacific Avenue,Playa del Rey,Los Angeles County,California,90293,United States,municipal,City of Playa del Rey,OK,,,,,
8143000,Shaw’s Cove Beach,33.5456958,-117.7983928,"989 Cliff Dr, Laguna Beach, CA 92651, USA",989,Cliff Drive,Laguna Beach,Orange County,California,92651,United States,municipal,City of Laguna Beach,OK,1009 Cliff Dr,"Laguna Beach, CA  92651",United States,,
8146130,Carmel River Bird Sanctuary,41.1353823,-124.1546596,"Sue-Meg Park, California 95570, USA",,,,Humboldt County,California,95570,United States,municipal,,OK,4150 Patricks Point Dr,"Trinidad, CA  95570",United States,,
8161840,Two Harbors-the Isthmus of Catalina,33.4399947,-118.4983253,"1 Banning House Rd, Avalon, CA 90704, USA",1,Banning House Road,Avalon,Los Angeles County,California,90704,United States,municipal,City of Avalon,OK,Little Harbor Rd,"Avalon, CA  90704",United States,,
8189405,Redondo Beach,37.4403237,-122.4440304,"CHR4+49 Half Moon Bay, CA, USA",,,Half Moon Bay,San Mateo County,California,94019,United States,municipal,City of Half Moon Bay,OK,Redondo Beach,"Half Moon Bay, CA 94019",United States,,
8210039,Andrew Molera Beach,36.2536434,-121.8361537,"7537+FG Big Sur, CA, USA",,,Big Sur,Monterey County,California,93920,United States,municipal,City of Big Sur,OK,"Monterey County, CA",United States,,,
8259283,Quarry Beach,37.8591538,-122.4209635,"VH6H+9M, Tiburon, CA 94920, USA",,,Belvedere Tiburon,Marin County,California,94920,United States,municipal,City of Belvedere Tiburon,OK,Steps To East Garrison Group Picnic Area,"Sausalito, CA  94965",United States,,
8299067,Rockaway Beach,37.6079931,-122.4981058,"100 Rockaway Beach Ave, Pacifica, CA 94044, USA",100,Rockaway Beach Avenue,Linda Mar,San Mateo County,California,94044,United States,municipal,City of Linda Mar,OK,Rockaway Beach Ave & Old County Rd,"Pacifica, CA 94044",United States,,
