[{"fid": 5079, "name": "Leucadia", "lat": 33.0722156, "lng": -117.308566, "dogs": "restricted", "gov": "Encinitas, City of"}, {"fid": 119550, "name": "Calafia Beach", "lat": 33.4052945, "lng": -117.6062382, "dogs": "restricted", "gov": "California Department of Parks and Recreation"}, {"fid": 143286, "name": "Encinitas Beach", "lat": 33.0548668, "lng": -117.3010606, "dogs": "no", "gov": "Encinitas, City of"}, {"fid": 205865, "name": "Pescadero Point Beach", "lat": 37.2445786, "lng": -122.4183529, "dogs": "yes", "gov": "California Department of Parks and Recreation"}, {"fid": 214291, "name": "Moss Beach", "lat": 36.6094649, "lng": -121.9490469, "dogs": "restricted", "gov": null}, {"fid": 214362, "name": "Mother's Beach", "lat": 33.9815258, "lng": -118.4580982, "dogs": "no", "gov": "Los Angeles County Department of Beaches and Harbors, County of"}, {"fid": 263574, "name": "Pistachio Beach", "lat": 37.1922588, "lng": -122.3978251, "dogs": "no", "gov": "California Department of Parks and Recreation"}, {"fid": 269506, "name": "Ribbon Beach", "lat": 33.4496185, "lng": -118.5788991, "dogs": "yes", "gov": "Santa Catalina Island Conservancy"}, {"fid": 290718, "name": "Pismo Beach", "lat": 35.1385248, "lng": -120.6432694, "dogs": "restricted", "gov": "California Department of Parks and Recreation"}, {"fid": 295327, "name": "Wright's Beach", "lat": 38.4004416, "lng": -123.0969761, "dogs": "yes", "gov": "California Department of Parks and Recreation"}, {"fid": 302324, "name": "Millerton Point", "lat": 38.1078594, "lng": -122.8453767, "dogs": "restricted", "gov": "California Department of Parks and Recreation"}, {"fid": 311892, "name": "Torrey Pines City Beach", "lat": 32.8772222, "lng": -117.2511111, "dogs": "restricted", "gov": "University of California"}, {"fid": 312947, "name": "Glass Beach", "lat": 38.1787638, "lng": -122.2877507, "dogs": "seasonal", "gov": "California Department of Fish and Wildlife"}, {"fid": 320902, "name": "The Bay", "lat": 33.7515745, "lng": -118.1275804, "dogs": "yes", "gov": "Long Beach, City of"}, {"fid": 336395, "name": "Half Moon Bay State Beach", "lat": 37.48448, "lng": -122.45357, "dogs": "restricted", "gov": "California Department of Parks and Recreation"}, {"fid": 363604, "name": "City Of Port Hueneme", "lat": 34.1569991, "lng": -119.1924253, "dogs": "yes", "gov": "Port Hueneme, City of"}, {"fid": 364121, "name": "Main Beach", "lat": 33.5423426, "lng": -117.7858186, "dogs": "seasonal", "gov": "Laguna Beach, City of"}, {"fid": 364760, "name": "Dan Blocker Beach", "lat": 34.0332479, "lng": -118.7383783, "dogs": "yes", "gov": "Los Angeles County Department of Beaches and Harbors, County of"}, {"fid": 404188, "name": "Ventura Harbor Village", "lat": 34.2486825, "lng": -119.2671468, "dogs": "no", "gov": "Channel Islands National Park"}, {"fid": 404381, "name": "Manresa State Beach", "lat": 36.9184331, "lng": -121.8534903, "dogs": "yes", "gov": "California Department of Parks and Recreation"}, {"fid": 432811, "name": "Mill Creek Picnic Area Beach", "lat": 35.9835887, "lng": -121.4915586, "dogs": "yes", "gov": "United States Forest Service"}, {"fid": 444861, "name": "Carpinteria State Beach", "lat": 34.390983, "lng": -119.5205571, "dogs": "restricted", "gov": "California Department of Parks and Recreation"}, {"fid": 450332, "name": "Gerstle Cove Reserve", "lat": 38.566425, "lng": -123.3287463, "dogs": "restricted", "gov": "California Department of Parks and Recreation"}, {"fid": 468739, "name": "Sandy Dune", "lat": 34.0749048, "lng": -119.0203859, "dogs": "restricted", "gov": "California Department of Parks and Recreation"}, {"fid": 473268, "name": "Santa Maria Beach", "lat": 38.0161045, "lng": -122.8552561, "dogs": "restricted", "gov": "United States National Park Service"}, {"fid": 530952, "name": "Tahoe Pines HOA Pier and Beach", "lat": 39.1035718, "lng": -120.1600825, "dogs": "restricted", "gov": "California Tahoe Conservancy"}, {"fid": 558762, "name": "Lighthouse Field State Beach", "lat": 36.9532827, "lng": -122.0292615, "dogs": "yes", "gov": "California Department of Parks and Recreation"}, {"fid": 589629, "name": "City Beach", "lat": 33.7626213, "lng": -118.1669712, "dogs": "restricted", "gov": "Long Beach, City of"}, {"fid": 590644, "name": "Sand Dollar Beach", "lat": 35.9240069, "lng": -121.4684883, "dogs": "yes", "gov": "United States Forest Service"}, {"fid": 722652, "name": "Refugio State Beach", "lat": 34.4627015, "lng": -120.0708354, "dogs": "restricted", "gov": "California Department of Parks and Recreation"}, {"fid": 754436, "name": "St. Ann's Beach", "lat": 33.5362348, "lng": -117.7798963, "dogs": "yes", "gov": "Laguna Beach, City of"}, {"fid": 772580, "name": "Scripps Beach", "lat": 32.8639981, "lng": -117.2549987, "dogs": "seasonal", "gov": "San Diego, City of"}, {"fid": 788364, "name": "Crescent Bay Beach", "lat": 33.5466788, "lng": -117.8017158, "dogs": "yes", "gov": "Orange, County of"}, {"fid": 805813, "name": "Manhattan Beach", "lat": 37.429806, "lng": -122.4398655, "dogs": "restricted", "gov": "Half Moon Bay, City of"}, {"fid": 812041, "name": "Cove Beach", "lat": 40.0248532, "lng": -124.0659456, "dogs": "restricted", "gov": null}, {"fid": 817541, "name": "Dockweiler State Beach", "lat": 33.9388028, "lng": -118.4406853, "dogs": "no", "gov": "Los Angeles County Department of Beaches and Harbors, County of"}, {"fid": 846978, "name": "East Beach", "lat": 33.7387341, "lng": -118.3749715, "dogs": "yes", "gov": "Mountains Recreation and Conservation Authority"}, {"fid": 919415, "name": "Elk Fence North Beach", "lat": 38.1809811, "lng": -122.9306227, "dogs": "restricted", "gov": "United States National Park Service"}, {"fid": 927574, "name": "North Beach", "lat": 32.6861111, "lng": -117.1925, "dogs": "restricted", "gov": "Coronado, City of"}, {"fid": 949830, "name": "Calawee Cove Beach", "lat": 38.9991837, "lng": -120.0987357, "dogs": "restricted", "gov": "California Department of Parks and Recreation"}, {"fid": 1039582, "name": "Redondo Beach Pier", "lat": 33.8401536, "lng": -118.3912361, "dogs": "no", "gov": "Redondo Beach, City of"}, {"fid": 1059361, "name": "Cuyler Harbor Beach Landing", "lat": 34.0470026, "lng": -120.3527035, "dogs": "no", "gov": "United States National Park Service"}, {"fid": 1093168, "name": "Natural Bridges State Beach", "lat": 36.9524827, "lng": -122.0576354, "dogs": "restricted", "gov": "California Department of Parks and Recreation"}, {"fid": 1147515, "name": "Lester Beach", "lat": 39.0004635, "lng": -120.1010186, "dogs": "no", "gov": "California Department of Parks and Recreation"}, {"fid": 1160918, "name": "Kellogg's Beach", "lat": 32.7101281, "lng": -117.2368026, "dogs": "yes", "gov": "San Diego, City of"}, {"fid": 1163237, "name": "Morro Rock Beach", "lat": 35.3747743, "lng": -120.8637285, "dogs": "yes", "gov": "Morro Bay, City of"}, {"fid": 1273141, "name": "Wildcat Beach", "lat": 37.9632585, "lng": -122.7883233, "dogs": "restricted", "gov": "United States National Park Service"}, {"fid": 1282829, "name": "Victoria Beach", "lat": 33.5183695, "lng": -117.7619576, "dogs": "seasonal", "gov": "Laguna Beach, City of"}, {"fid": 1300193, "name": "Gallinas Beach", "lat": 38.0154777, "lng": -122.5049757, "dogs": "restricted", "gov": "Marin County Parks Department, County of"}, {"fid": 1317321, "name": "Windansea Beach", "lat": 32.8281502, "lng": -117.2802847, "dogs": "restricted", "gov": "San Diego, City of"}, {"fid": 1347592, "name": "Elm Grove Beach", "lat": 33.667919, "lng": -117.33728, "dogs": "restricted", "gov": "Lake Elsinore, City of"}, {"fid": 1348332, "name": "Seal Beach", "lat": 34.7378529, "lng": -120.6265047, "dogs": "yes", "gov": "United States Bureau of Land Management"}, {"fid": 1383791, "name": "Point Dume", "lat": 34.0035063, "lng": -118.8072574, "dogs": "no", "gov": "California Department of Parks and Recreation"}, {"fid": 1387065, "name": "San Mateo Coast State Beaches", "lat": 37.2965829, "lng": -122.4068453, "dogs": "no", "gov": "California Department of Parks and Recreation"}, {"fid": 1403201, "name": "Harbor Cove Beach", "lat": 34.2467448, "lng": -119.2680029, "dogs": "restricted", "gov": "Channel Islands National Park"}, {"fid": 1411049, "name": "Bodega Head Beach", "lat": 38.3043097, "lng": -123.0647063, "dogs": "restricted", "gov": "California Department of Parks and Recreation"}, {"fid": 1421678, "name": "Westport/union Landing", "lat": 39.6603198, "lng": -123.786537, "dogs": "yes", "gov": "California Department of Parks and Recreation"}, {"fid": 1427735, "name": "Fish Rock Beach at Anchor Bay", "lat": 38.804133, "lng": -123.579341, "dogs": "yes", "gov": null}, {"fid": 1446200, "name": "Spanish Landing Park", "lat": 32.7284925, "lng": -117.2094709, "dogs": "yes", "gov": "San Diego Unified Port District"}, {"fid": 1463229, "name": "Sand Cove Beach", "lat": 38.5992528, "lng": -121.5430952, "dogs": "yes", "gov": "Sacramento, City of"}, {"fid": 1489635, "name": "Gallatin Beach", "lat": 40.558314, "lng": -120.7702051, "dogs": "yes", "gov": "United States Forest Service"}, {"fid": 1500796, "name": "Ventura Cove Park", "lat": 32.7730729, "lng": -117.2450589, "dogs": "restricted", "gov": "San Diego, City of"}, {"fid": 1516107, "name": "Naples Beach", "lat": 37.463062, "lng": -122.429164, "dogs": "restricted", "gov": "Half Moon Bay, City of"}, {"fid": 1553963, "name": "Long Cove Beach", "lat": 38.1517405, "lng": -122.9111552, "dogs": "restricted", "gov": "United States National Park Service"}, {"fid": 1576641, "name": "Santa Monica bike trail", "lat": 34.0236084, "lng": -118.5127734, "dogs": "no", "gov": "Santa Monica, City of"}, {"fid": 1581105, "name": "Arroyo Burro Beach", "lat": 34.4027865, "lng": -119.7433816, "dogs": "yes", "gov": "Santa Barbara, County of"}, {"fid": 1594332, "name": "Bayside Beach", "lat": 33.6024404, "lng": -117.8831345, "dogs": "no", "gov": "Orange, County of"}, {"fid": 1620294, "name": "Mickey's Beach", "lat": 37.8874001, "lng": -122.631212, "dogs": "restricted", "gov": "California Department of Parks and Recreation"}, {"fid": 1627153, "name": "White Point Beach", "lat": 33.715764, "lng": -118.319191, "dogs": "restricted", "gov": "Los Angeles County Department of Beaches and Harbors, County of"}, {"fid": 1627495, "name": "Stonesteps Beach", "lat": 33.0546086, "lng": -117.3011434, "dogs": "no", "gov": "Encinitas, City of"}, {"fid": 1638315, "name": "New Brighton State Beach", "lat": 36.9784723, "lng": -121.9351722, "dogs": "yes", "gov": "California Department of Parks and Recreation"}, {"fid": 1647172, "name": "Anita Street Beach", "lat": 33.5347962, "lng": -117.7780522, "dogs": "yes", "gov": "Laguna Beach, City of"}, {"fid": 1672701, "name": "Marine Street Beach", "lat": 32.8357506, "lng": -117.2815311, "dogs": "restricted", "gov": "Cabrillo National Monument"}, {"fid": 1674961, "name": "Little Dume Beach", "lat": 34.0111425, "lng": -118.7937272, "dogs": "restricted", "gov": "Malibu, City of"}, {"fid": 1681190, "name": "Salt Creek Beach Park", "lat": 33.4766816, "lng": -117.7204156, "dogs": "restricted", "gov": "Orange, County of"}, {"fid": 1689752, "name": "Warm Waters Jetty Beach", "lat": 33.1411419, "lng": -117.3406638, "dogs": "no", "gov": "California Department of Parks and Recreation"}, {"fid": 1696335, "name": "Trinidad State Beach", "lat": 41.1353823, "lng": -124.1546596, "dogs": "restricted", "gov": "California Department of Parks and Recreation"}, {"fid": 1783598, "name": "Venice", "lat": 33.9801416, "lng": -118.4692247, "dogs": "yes", "gov": "Los Angeles Department of Recreation and Parks, City of"}, {"fid": 1888420, "name": "Fish Rock Beach", "lat": 38.8030588, "lng": -123.5818298, "dogs": "yes", "gov": "United States Bureau of Land Management"}, {"fid": 1892675, "name": "Avila Beach", "lat": 35.1785351, "lng": -120.7341349, "dogs": "yes", "gov": "Port San Luis Harbor District"}, {"fid": 1904901, "name": "Devereux Beach", "lat": 34.4087613, "lng": -119.8755598, "dogs": null, "gov": null}, {"fid": 1915003, "name": "Davenport Landing Beach", "lat": 37.0242955, "lng": -122.2161412, "dogs": "no", "gov": "Other State"}, {"fid": 1940033, "name": "Sandy Beach", "lat": 39.803735, "lng": -121.4411652, "dogs": "yes", "gov": "United States Forest Service"}, {"fid": 1941540, "name": "Dana Point Headlands Beach", "lat": 33.4607552, "lng": -117.7082896, "dogs": "no", "gov": "Dana Point, City of"}, {"fid": 1959098, "name": "San Carpoforo Creek Beach", "lat": 35.7634033, "lng": -121.3229656, "dogs": "restricted", "gov": "California Department of Parks and Recreation"}, {"fid": 1972165, "name": "North Bird Rock", "lat": 32.8080838, "lng": -117.2655907, "dogs": "yes", "gov": "San Diego, City of"}, {"fid": 1978733, "name": "Mandalay State Beach", "lat": 34.2012677, "lng": -119.2506862, "dogs": "no", "gov": "California Department of Parks and Recreation"}, {"fid": 2005449, "name": "Totuava Beach", "lat": 33.5000923, "lng": -117.7443386, "dogs": "seasonal", "gov": "Orange, County of"}, {"fid": 2047198, "name": "Gibraltar Beach", "lat": 33.4210228, "lng": -118.4071214, "dogs": "yes", "gov": "Santa Catalina Island Conservancy"}, {"fid": 2052963, "name": "Morro Strand State Beach", "lat": 35.3867186, "lng": -120.8645143, "dogs": "no", "gov": "California Department of Parks and Recreation"}, {"fid": 2065434, "name": "Klamath Beach", "lat": 41.511448, "lng": -124.0285727, "dogs": "unknown", "gov": "Yurok LAR"}, {"fid": 2068359, "name": "Wages Creek Beach", "lat": 39.6521664, "lng": -123.7844864, "dogs": "restricted", "gov": "Westport Village Society"}, {"fid": 2106935, "name": "Gamboa Beach", "lat": 36.0714445, "lng": -121.6044332, "dogs": "restricted", "gov": "University of California"}, {"fid": 2171416, "name": "Potbelly Beach", "lat": 36.9774506, "lng": -121.9288474, "dogs": "yes", "gov": "California Department of Parks and Recreation"}, {"fid": 2171636, "name": "Oceano Dunes State Rec Area", "lat": 35.0718878, "lng": -120.6296859, "dogs": "yes", "gov": "California Department of Parks and Recreation"}, {"fid": 2181355, "name": "Mitchell’s Cove Beach", "lat": 36.9527847, "lng": -122.0413551, "dogs": "yes", "gov": "Santa Cruz, City of"}, {"fid": 2195319, "name": "Morro Bay Dog Beach", "lat": 35.4150228, "lng": -120.8744896, "dogs": "yes", "gov": "San Luis Obispo, County of"}, {"fid": 2200958, "name": "Seascape Sur Beach", "lat": 32.984953, "lng": -117.2732162, "dogs": "no", "gov": "Solana Beach, City of"}, {"fid": 2228365, "name": "Shark Fin Cove Loop", "lat": 36.9996799, "lng": -122.179909, "dogs": "no", "gov": "California Department of Parks and Recreation"}, {"fid": 2265001, "name": "Paradise Cove Beach", "lat": 34.0196656, "lng": -118.7874091, "dogs": "restricted", "gov": "Malibu, City of"}, {"fid": 2292030, "name": "Bruce's Beach", "lat": 33.8937072, "lng": -118.4172106, "dogs": "no", "gov": "Los Angeles County Department of Beaches and Harbors, County of"}, {"fid": 2301923, "name": "Trancas Beach", "lat": 34.0333427, "lng": -118.8506359, "dogs": "restricted", "gov": "Malibu, City of"}, {"fid": 2347970, "name": "Sand Plant Beach", "lat": 36.9546657, "lng": -122.0912592, "dogs": "no", "gov": "California Department of Parks and Recreation"}, {"fid": 2355706, "name": "Junipero Beach", "lat": 33.7606952, "lng": -118.1569859, "dogs": "restricted", "gov": "Long Beach, City of"}, {"fid": 2358248, "name": "Torrey Pines State Beach", "lat": 32.928157, "lng": -117.2598696, "dogs": "no", "gov": "California Department of Parks and Recreation"}, {"fid": 2361122, "name": "Ross Cove Beach", "lat": 37.501153, "lng": -122.498513, "dogs": "restricted", "gov": "San Mateo County Parks and Recreation Dept., County of"}, {"fid": 2377366, "name": "A Street Beach", "lat": 33.600151, "lng": -117.8993645, "dogs": "no", "gov": "Newport Beach, City of"}, {"fid": 2416948, "name": "San Vicente Beach", "lat": 37.0096266, "lng": -122.1942763, "dogs": null, "gov": null}, {"fid": 2426674, "name": "Kid Beach", "lat": 33.5984682, "lng": -117.8829816, "dogs": "restricted", "gov": "Newport Beach, City of"}, {"fid": 2431480, "name": "Little Point Beach", "lat": 32.833683, "lng": -117.2818337, "dogs": "yes", "gov": "San Diego, City of"}, {"fid": 2439387, "name": "Samoa Beach", "lat": 40.8213929, "lng": -124.1909873, "dogs": "restricted", "gov": null}, {"fid": 2448124, "name": "Rockpile Beach", "lat": 33.5434033, "lng": -117.7906503, "dogs": "yes", "gov": "Laguna Beach, City of"}, {"fid": 2463115, "name": "Avalis Beach", "lat": 38.231624, "lng": -122.9815216, "dogs": "restricted", "gov": "United States National Park Service"}, {"fid": 2501233, "name": "Moonstone Beach", "lat": 33.388753, "lng": -118.3678794, "dogs": "yes", "gov": "Santa Catalina Island Conservancy"}, {"fid": 2502285, "name": "Button Shell Beach", "lat": 33.4050472, "lng": -118.3690352, "dogs": "yes", "gov": "Santa Catalina Island Conservancy"}, {"fid": 2533337, "name": "Huntington State Beach", "lat": 33.6384539, "lng": -117.9750109, "dogs": "restricted", "gov": "California Department of Parks and Recreation"}, {"fid": 2541400, "name": "Boomer Beach", "lat": 32.8486542, "lng": -117.2763115, "dogs": "restricted", "gov": "San Diego, City of"}, {"fid": 2546878, "name": "Bolsa Chica State Beach", "lat": 33.6962577, "lng": -118.0489862, "dogs": "restricted", "gov": "California Department of Parks and Recreation"}, {"fid": 2576116, "name": "North Ponto Beach", "lat": 33.114258, "lng": -117.324487, "dogs": "restricted", "gov": "California Department of Parks and Recreation"}, {"fid": 2617546, "name": "Anchor Bay Beach", "lat": 38.7936973, "lng": -123.5656357, "dogs": "yes", "gov": "United States Bureau of Land Management"}, {"fid": 2620068, "name": "Garbage Beach", "lat": 32.717365, "lng": -117.255947, "dogs": "restricted", "gov": "San Diego, City of"}, {"fid": 2649621, "name": "Mission Bay Bike Path", "lat": 32.7726307, "lng": -117.24961, "dogs": "restricted", "gov": "San Diego, City of"}, {"fid": 2655527, "name": "Campbell Cove", "lat": 38.3048685, "lng": -123.0572142, "dogs": "restricted", "gov": "California Department of Parks and Recreation"}, {"fid": 2664613, "name": "Point Dume State Beach", "lat": 34.003811, "lng": -118.8103002, "dogs": "no", "gov": "Los Angeles County Department of Beaches and Harbors, County of"}, {"fid": 2667696, "name": "Ormond Beach", "lat": 34.1197721, "lng": -119.1588897, "dogs": "restricted", "gov": "California State Coastal Conservancy"}, {"fid": 2679561, "name": "Whispering Sands Beach", "lat": 32.8391581, "lng": -117.2818154, "dogs": "restricted", "gov": "Cabrillo National Monument"}, {"fid": 2691146, "name": "Hamilton Beach", "lat": 33.35368, "lng": -118.3298287, "dogs": "restricted", "gov": "Avalon, City of"}, {"fid": 2732905, "name": "The Esplanade Public Coastal Access", "lat": 32.7285647, "lng": -117.2099617, "dogs": "yes", "gov": "San Diego Unified Port District"}, {"fid": 2749283, "name": "South Beach", "lat": 33.3430817, "lng": -118.3246597, "dogs": "restricted", "gov": "Avalon, City of"}, {"fid": 2756165, "name": "South Oceanside Beach", "lat": 33.1723135, "lng": -117.3652337, "dogs": "no", "gov": "Oceanside, City of"}, {"fid": 2759181, "name": "Padaro Lane", "lat": 34.4148617, "lng": -119.5668972, "dogs": null, "gov": null}, {"fid": 2801898, "name": "Lifeguard Tower 30", "lat": 33.1462921, "lng": -117.3448098, "dogs": "no", "gov": "California Department of Parks and Recreation"}, {"fid": 2807493, "name": "Sycamore Cove Beach", "lat": 34.0700714, "lng": -119.0130204, "dogs": "restricted", "gov": "California Department of Parks and Recreation"}, {"fid": 2823508, "name": "Stillwater Cove Beach", "lat": 36.5657755, "lng": -121.9408339, "dogs": "restricted", "gov": null}, {"fid": 2841061, "name": "Redwood Creek Beach", "lat": 41.285939, "lng": -124.092819, "dogs": "yes", "gov": "United States National Park Service"}, {"fid": 2855498, "name": "Huntington Beach, Tower 17", "lat": 33.6481987, "lng": -117.9904961, "dogs": "restricted", "gov": "California Department of Parks and Recreation"}, {"fid": 2864146, "name": "Sunny Cove Beach", "lat": 36.96054, "lng": -121.9894785, "dogs": "restricted", "gov": "Santa Cruz County Parks, County of"}, {"fid": 2897812, "name": "Pigeon Point Beach", "lat": 37.1872536, "lng": -122.3968046, "dogs": "no", "gov": "California Department of Parks and Recreation"}, {"fid": 2898958, "name": "San Carlos Beach", "lat": 36.6100473, "lng": -121.8956669, "dogs": "restricted", "gov": "Monterey Peninsula Regional Park District"}, {"fid": 2901323, "name": "Willow Cove Beach", "lat": 33.3776304, "lng": -118.3563886, "dogs": "yes", "gov": "Santa Catalina Island Conservancy"}, {"fid": 2929625, "name": "Seal Beach Old Town", "lat": 33.7407308290996, "lng": -118.109440139967, "dogs": "no", "gov": "Seal Beach, City of"}, {"fid": 2952274, "name": "Danburg Beach", "lat": 38.015, "lng": -119.1358333, "dogs": "restricted", "gov": "California Department of Parks and Recreation"}, {"fid": 2982253, "name": "Horny Corner Beach", "lat": 33.7549235, "lng": -118.1319737, "dogs": "restricted", "gov": "Long Beach, City of"}, {"fid": 3064688, "name": "Greenwood State Beach", "lat": 39.1273619, "lng": -123.7174602, "dogs": "yes", "gov": "California Department of Parks and Recreation"}, {"fid": 3065514, "name": "Tennessee Beach", "lat": 37.842129, "lng": -122.551753, "dogs": "restricted", "gov": "United States National Park Service"}, {"fid": 3065700, "name": "Frenchys Cove Beach", "lat": 34.0071456, "lng": -119.4110377, "dogs": "no", "gov": "United States National Park Service"}, {"fid": 3086299, "name": "Del Mar Beaches", "lat": 32.9628385, "lng": -117.268611, "dogs": "yes", "gov": "Del Mar, City of"}, {"fid": 3089995, "name": "Marina Peninsula Beach", "lat": 33.9675802, "lng": -118.4599009, "dogs": "no", "gov": "Los Angeles, County of"}, {"fid": 3094675, "name": "South Beach", "lat": 37.08, "lng": -121.0580556, "dogs": "restricted", "gov": "California Department of Parks and Recreation"}, {"fid": 3165623, "name": "Carlsbad City Beach", "lat": 33.1580242, "lng": -117.3539585, "dogs": "yes", "gov": "California Department of Parks and Recreation"}, {"fid": 3193741, "name": "Gallagher Beach", "lat": 33.3699906, "lng": -118.3481423, "dogs": "yes", "gov": "Santa Catalina Island Conservancy"}, {"fid": 3220163, "name": "The Wedge", "lat": 33.593265, "lng": -117.8811684, "dogs": "restricted", "gov": "Newport Beach, City of"}, {"fid": 3259415, "name": "Alan P Sieroty Beach", "lat": 38.1076104, "lng": -122.8420284, "dogs": "restricted", "gov": "California Department of Parks and Recreation"}, {"fid": 3265951, "name": "Abalone Cove Beach", "lat": 33.74163, "lng": -118.379083, "dogs": "no", "gov": "Mountains Recreation and Conservation Authority"}, {"fid": 3271954, "name": "Hanna Beach", "lat": 34.0525326, "lng": -118.9623675, "dogs": "restricted", "gov": "California Department of Parks and Recreation"}, {"fid": 3276472, "name": "Playa San Juan Leighton", "lat": 34.0383274, "lng": -118.8817458, "dogs": "restricted", "gov": "Malibu, City of"}, {"fid": 3283589, "name": "Kings Beach", "lat": 39.2383327, "lng": -120.0278954, "dogs": "restricted", "gov": "California Department of Parks and Recreation"}, {"fid": 3313096, "name": "Carmel Meadows Beach", "lat": 36.5306409, "lng": -121.9245763, "dogs": "yes", "gov": "Monterey, County of"}, {"fid": 3317645, "name": "Picnic Beach", "lat": 33.5440958, "lng": -117.7931229, "dogs": "yes", "gov": "Laguna Beach, City of"}, {"fid": 3322659, "name": "Houghton M. Roberts Beach", "lat": 36.610009, "lng": -121.8607571, "dogs": "restricted", "gov": "Monterey Peninsula Regional Park District"}, {"fid": 3365449, "name": "Riviera Beach Plaza", "lat": 33.7645664, "lng": -118.1824557, "dogs": "restricted", "gov": "Long Beach, City of"}, {"fid": 3413143, "name": "Sand Springs Beach", "lat": 37.855525, "lng": -122.4283576, "dogs": "restricted", "gov": "California Department of Parks and Recreation"}, {"fid": 3425377, "name": "Goff Island Beach", "lat": 33.5144651, "lng": -117.7601874, "dogs": "seasonal", "gov": "Laguna Beach, City of"}, {"fid": 3450731, "name": "Deer Creek Beach", "lat": 34.055602, "lng": -118.967433, "dogs": "restricted", "gov": "United States National Park Service"}, {"fid": 3462475, "name": "East Beach", "lat": 34.4120065, "lng": -119.6881594, "dogs": "restricted", "gov": "Santa Barbara, City of"}, {"fid": 3516512, "name": "Grandview Beach", "lat": 33.0760195, "lng": -117.310161, "dogs": "restricted", "gov": "Encinitas, City of"}, {"fid": 3570518, "name": "Rincon Beach", "lat": 34.3252299, "lng": -119.396013, "dogs": "restricted", "gov": null}, {"fid": 3594578, "name": "Crescent Beach Overlook", "lat": 41.707165, "lng": -124.143791, "dogs": "no", "gov": "United States National Park Service"}, {"fid": 3714034, "name": "Houda Point Beach", "lat": 41.0367435, "lng": -124.1192798, "dogs": "restricted", "gov": "Trinidad Coastal Land Trust"}, {"fid": 3755539, "name": "Huntington City Beach", "lat": 33.6564104, "lng": -118.0037159, "dogs": "restricted", "gov": "California Department of Parks and Recreation"}, {"fid": 3804492, "name": "Pelican State Beach", "lat": 41.991307, "lng": -124.2093658, "dogs": "no", "gov": "California Department of Parks and Recreation"}, {"fid": 3811721, "name": "Marina State Beach", "lat": 36.6907387, "lng": -121.8114924, "dogs": "no", "gov": "California Department of Parks and Recreation"}, {"fid": 3812893, "name": "Hermosa Beach", "lat": 33.8643578, "lng": -118.4034348, "dogs": "no", "gov": "Los Angeles County Department of Beaches and Harbors, County of"}, {"fid": 3834810, "name": "Pacific Palisades Beach", "lat": 34.0384757, "lng": -118.5533273, "dogs": "no", "gov": "Los Angeles, County of"}, {"fid": 3847965, "name": "West Beach", "lat": 34.4102379, "lng": -119.6899295, "dogs": "no", "gov": "Santa Barbara, City of"}, {"fid": 3877096, "name": "San Simeon Creek Beach", "lat": 35.5973332, "lng": -121.1293242, "dogs": "restricted", "gov": "California Department of Parks and Recreation"}, {"fid": 3878954, "name": "Manresa State Beach", "lat": 36.9322572, "lng": -121.862728, "dogs": "yes", "gov": "California Department of Parks and Recreation"}, {"fid": 3883779, "name": "Mattole Beach", "lat": 40.2835853, "lng": -124.3605995, "dogs": "yes", "gov": "United States Bureau of Land Management"}, {"fid": 3905104, "name": "Venice Beach", "lat": 33.9801416, "lng": -118.4692247, "dogs": "restricted", "gov": "Los Angeles Department of Recreation and Parks, City of"}, {"fid": 3970404, "name": "Las Tunas Beach", "lat": 34.0392811, "lng": -118.5978805, "dogs": "restricted", "gov": "Los Angeles County Department of Beaches and Harbors, County of"}, {"fid": 3984285, "name": "The Wall", "lat": 35.1779798, "lng": -120.7314702, "dogs": "restricted", "gov": null}, {"fid": 4053497, "name": "Monty’s Dog Beach & Bar", "lat": 33.7553644, "lng": -118.1394487, "dogs": "yes", "gov": "Long Beach, City of"}, {"fid": 4155371, "name": "Smith River Beach", "lat": 41.9565377, "lng": -124.2076659, "dogs": "restricted", "gov": "Smith River LAR"}, {"fid": 4173003, "name": "Four Mile Beach", "lat": 36.9664934, "lng": -122.1226549, "dogs": "no", "gov": "California Department of Parks and Recreation"}, {"fid": 4182647, "name": "Little Black Sands Beach", "lat": 40.0385863, "lng": -124.0798025, "dogs": "unknown", "gov": "Resort Improvement District No. 1"}, {"fid": 4220550, "name": "White Gulch Beach", "lat": 38.193439, "lng": -122.9464571, "dogs": "restricted", "gov": "United States National Park Service"}, {"fid": 4312284, "name": "Beach Now", "lat": 33.9915722, "lng": -118.4780152, "dogs": "restricted", "gov": "Los Angeles Department of Recreation and Parks, City of"}, {"fid": 4329876, "name": "Sharp Park Beach", "lat": 37.6310586, "lng": -122.4946725, "dogs": "yes", "gov": "Pacifica, City of"}, {"fid": 4365615, "name": "Cabrillo Beach", "lat": 33.7112213, "lng": -118.2831645, "dogs": "no", "gov": "Los Angeles Department of Recreation and Parks, City of"}, {"fid": 4372568, "name": "Blackie's Beach", "lat": 33.6091064, "lng": -117.9301429, "dogs": "restricted", "gov": "Newport Beach, City of"}, {"fid": 4397054, "name": "East Beach", "lat": 34.4166106, "lng": -119.6668625, "dogs": "no", "gov": "Santa Barbara, City of"}, {"fid": 4411973, "name": "Wavecrest Beach", "lat": 37.46511, "lng": -122.44443, "dogs": "yes", "gov": "Half Moon Bay, City of"}, {"fid": 4443616, "name": "South Monterey Dunes Beach", "lat": 36.6034919, "lng": -121.8709793, "dogs": "restricted", "gov": "Monterey Peninsula Regional Park District"}, {"fid": 4460691, "name": "Baker Beach", "lat": 37.7934398, "lng": -122.4837399, "dogs": "restricted", "gov": "United States National Park Service"}, {"fid": 4467077, "name": "Pope Beach", "lat": 38.9367382, "lng": -120.0250393, "dogs": "yes", "gov": "United States Forest Service"}, {"fid": 4467278, "name": "Maritime Rocks Accessway", "lat": 34.0377926, "lng": -118.6212504, "dogs": "no", "gov": "Big Rock Beach"}, {"fid": 4486806, "name": "Westward Beach", "lat": 34.0100744, "lng": -118.8166205, "dogs": "no", "gov": "Los Angeles County Department of Beaches and Harbors, County of"}, {"fid": 4507218, "name": "Lost coast", "lat": 40.4157402, "lng": -124.3972474, "dogs": "restricted", "gov": "United States Bureau of Land Management"}, {"fid": 4534569, "name": "Mondos Beach", "lat": 34.3210787, "lng": -119.3748128, "dogs": null, "gov": null}, {"fid": 4548831, "name": "Del Valle East Shore Beach", "lat": 37.5843124, "lng": -121.6993474, "dogs": "yes", "gov": "East Bay Regional Park District"}, {"fid": 4551923, "name": "38th Ave. Beach", "lat": 36.9587054, "lng": -121.9673395, "dogs": "yes", "gov": "Santa Cruz, County of"}, {"fid": 4585948, "name": "San Clemente City Beach", "lat": 33.4289455, "lng": -117.63013, "dogs": "no", "gov": "San Clemente, City of"}, {"fid": 4596578, "name": "Teachers Beach", "lat": 38.1139262, "lng": -122.8697443, "dogs": "restricted", "gov": "California Department of Parks and Recreation"}, {"fid": 4597531, "name": "Topanga Beach", "lat": 34.038818, "lng": -118.5815549, "dogs": "no", "gov": "Los Angeles, County of"}, {"fid": 4598113, "name": "Lake Anza ", "lat": 37.8954698, "lng": -122.251044, "dogs": "restricted", "gov": "East Bay Regional Park District"}, {"fid": 4615237, "name": "Moonlight State Beach", "lat": 33.0478595, "lng": -117.2983485, "dogs": "no", "gov": "Encinitas, City of"}, {"fid": 4641200, "name": "Pinebrook Beach", "lat": 38.2362711, "lng": -120.3418096, "dogs": "restricted", "gov": null}, {"fid": 4641976, "name": "Aliso Beach", "lat": 33.508579, "lng": -117.7513893, "dogs": "yes", "gov": "Orange, County of"}, {"fid": 4648105, "name": "Cooks Beach", "lat": 38.789391, "lng": -123.5607317, "dogs": "yes", "gov": null}, {"fid": 4704404, "name": "Centerville Beach County Park", "lat": 40.5740554, "lng": -124.3493461, "dogs": "yes", "gov": "Humboldt, County of"}, {"fid": 4724792, "name": "Shell Beach", "lat": 38.116512, "lng": -122.8734434, "dogs": "restricted", "gov": "California Department of Parks and Recreation"}, {"fid": 4772579, "name": "Depressions Beach", "lat": 34.407936, "lng": -119.852568, "dogs": null, "gov": null}, {"fid": 4803034, "name": "South Salmon Creek Beach", "lat": 38.3393611, "lng": -123.0680577, "dogs": "no", "gov": "California Department of Parks and Recreation"}, {"fid": 4828827, "name": "Law Street Beach", "lat": 32.6840264, "lng": -117.1854857, "dogs": "yes", "gov": "Coronado, City of"}, {"fid": 4834338, "name": "Marshall's Beach", "lat": 37.8016715, "lng": -122.4796807, "dogs": "no", "gov": "United States National Park Service"}, {"fid": 4841255, "name": "Italian Gardens", "lat": 33.4096596, "lng": -118.3818386, "dogs": "yes", "gov": "Santa Catalina Island Conservancy"}, {"fid": 4862130, "name": "california surf club", "lat": 33.8440104, "lng": -118.3936099, "dogs": "no", "gov": "Redondo Beach, City of"}, {"fid": 4882238, "name": "Miramar Beach", "lat": 37.4962295, "lng": -122.4631999, "dogs": "restricted", "gov": "Half Moon Bay, City of"}, {"fid": 4937506, "name": "Calawee Cove", "lat": 38.866185, "lng": -120.0123747, "dogs": "no", "gov": "California Department of Parks and Recreation"}, {"fid": 5002892, "name": "Pismo State Beach", "lat": 35.0866245, "lng": -120.6299686, "dogs": "yes", "gov": "California Department of Parks and Recreation"}, {"fid": 5011046, "name": "Fish Rock Beach at Anchor Bay", "lat": 38.8029333, "lng": -123.5802496, "dogs": "yes", "gov": null}, {"fid": 5092727, "name": "West End Beach", "lat": 39.3217253, "lng": -120.289614, "dogs": "yes", "gov": "Truckee-Donner Recreation and Park District"}, {"fid": 5132557, "name": "Pinnacle Beach", "lat": 38.306845, "lng": -123.018258, "dogs": "yes", "gov": "Sonoma County Regional Parks Dept., County of"}, {"fid": 5144045, "name": "Bill’s Beach", "lat": 36.6083108, "lng": -121.9518632, "dogs": "restricted", "gov": null}, {"fid": 5148963, "name": "Whaler's Cove", "lat": 36.5204806, "lng": -121.9431647, "dogs": "no", "gov": "California Department of Parks and Recreation"}, {"fid": 5167728, "name": "China Cove Beach", "lat": 33.5984654, "lng": -117.879655, "dogs": "restricted", "gov": "Newport Beach, City of"}, {"fid": 5233983, "name": "Monument Point", "lat": 33.5435544, "lng": -117.7926309, "dogs": "yes", "gov": "Laguna Beach, City of"}, {"fid": 5234224, "name": "Mermaid Beach", "lat": 33.52007, "lng": -117.76407, "dogs": "seasonal", "gov": "Laguna Beach, City of"}, {"fid": 5265131, "name": "Mission Bay Beach", "lat": 32.7927085, "lng": -117.2095899, "dogs": "restricted", "gov": "San Diego, City of"}, {"fid": 5272977, "name": "Visit Carlsbad", "lat": 33.1185228, "lng": -117.2366766, "dogs": "yes", "gov": "Carlsbad, City of"}, {"fid": 5326104, "name": "Bass Rock Beach", "lat": 34.0656632, "lng": -118.9956558, "dogs": "restricted", "gov": "United States National Park Service"}, {"fid": 5328331, "name": "Baldwin Beach", "lat": 38.9434225, "lng": -120.0683033, "dogs": "restricted", "gov": "United States Forest Service"}, {"fid": 5329217, "name": "San Simeon State Beach", "lat": 35.6429986, "lng": -121.1878295, "dogs": "restricted", "gov": "California Department of Parks and Recreation"}, {"fid": 5330784, "name": "Salton Beach", "lat": 33.4697222, "lng": -115.8838889, "dogs": "restricted", "gov": "California Department of Parks and Recreation"}, {"fid": 5367083, "name": "Goat Rock Beach", "lat": 38.4446486, "lng": -123.1268263, "dogs": "no", "gov": "California Department of Parks and Recreation"}, {"fid": 5369978, "name": "Coronado Beach", "lat": 32.6993736, "lng": -117.1704487, "dogs": "restricted", "gov": "San Diego Unified Port District"}, {"fid": 5385503, "name": "Pita Beach", "lat": 38.2029195, "lng": -122.9503066, "dogs": "restricted", "gov": "United States National Park Service"}, {"fid": 5390893, "name": "Del Mar Beach, California, USA", "lat": 32.9551176, "lng": -117.2673707, "dogs": "yes", "gov": "Del Mar, City of"}, {"fid": 5399718, "name": "Padaro Beach", "lat": 34.4129315, "lng": -119.5778909, "dogs": "restricted", "gov": null}, {"fid": 5514311, "name": "Arched Rock Beach", "lat": 38.3663518, "lng": -123.0724441, "dogs": "restricted", "gov": "California Department of Parks and Recreation"}, {"fid": 5534332, "name": "Coleman Beach", "lat": 38.3628923, "lng": -123.0699635, "dogs": "restricted", "gov": "California Department of Parks and Recreation"}, {"fid": 5546689, "name": "Santa Monica Beach", "lat": 34.0398115, "lng": -118.5783523, "dogs": "no", "gov": "Los Angeles, County of"}, {"fid": 5565580, "name": "Seal Rock, Pebble Beach", "lat": 36.5877361, "lng": -121.9644594, "dogs": null, "gov": null}, {"fid": 5584839, "name": "Miwok Beach", "lat": 38.3604718, "lng": -123.0688911, "dogs": "restricted", "gov": "California Department of Parks and Recreation"}, {"fid": 5713362, "name": "Shell Beach", "lat": 32.8487736, "lng": -117.2762042, "dogs": "yes", "gov": "San Diego, City of"}, {"fid": 5752813, "name": "Malibu Colony Beach", "lat": 34.0318786, "lng": -118.6880654, "dogs": "restricted", "gov": "California Department of Parks and Recreation"}, {"fid": 5768930, "name": "Crissy Field East Beach", "lat": 37.8062577, "lng": -122.4514461, "dogs": "restricted", "gov": "United States National Park Service"}, {"fid": 5795618, "name": "Silver Strand Beach", "lat": 34.1505961, "lng": -119.2183971, "dogs": "restricted", "gov": null}, {"fid": 5815707, "name": "Gibson Beach", "lat": 36.5068955, "lng": -121.9388415, "dogs": "no", "gov": "California Department of Parks and Recreation"}, {"fid": 5841182, "name": "Tide Beach Park", "lat": 32.997021, "lng": -117.276207, "dogs": "yes", "gov": "Solana Beach, City of"}, {"fid": 5844897, "name": "Hare Creek Beach", "lat": 39.4179182, "lng": -123.8114665, "dogs": "yes", "gov": "Mendocino Land Trust"}, {"fid": 5909151, "name": "Limantour Beach", "lat": 38.0245149, "lng": -122.8793335, "dogs": "restricted", "gov": "United States National Park Service"}, {"fid": 5932073, "name": "Long Point Beach", "lat": 33.4071197, "lng": -118.3691776, "dogs": "yes", "gov": "Santa Catalina Island Conservancy"}, {"fid": 5951020, "name": "Robert W. Crown Memorial State Beach", "lat": 37.7600514, "lng": -122.2671612, "dogs": "restricted", "gov": "East Bay Regional Park District"}, {"fid": 5952382, "name": "Vespucci Beach", "lat": 33.9905569, "lng": -118.4793624, "dogs": "yes", "gov": "Los Angeles Department of Recreation and Parks, City of"}, {"fid": 5954692, "name": "Hug Deli", "lat": 34.003289, "lng": -118.489428, "dogs": "yes", "gov": "Santa Monica, City of"}, {"fid": 6023791, "name": "Lovers Point Beach", "lat": 36.6259297, "lng": -121.9160825, "dogs": "restricted", "gov": "Pacific Grove, City of"}, {"fid": 6024456, "name": "North Manhattan Beach", "lat": 33.9009918, "lng": -118.4207082, "dogs": "no", "gov": "Los Angeles County Department of Beaches and Harbors, County of"}, {"fid": 6056091, "name": "San Gregorio Beach", "lat": 37.3256936510793, "lng": -122.403288956508, "dogs": "no", "gov": "California Department of Parks and Recreation"}, {"fid": 6119906, "name": "Reedley Beach", "lat": 36.5862772, "lng": -119.4593668, "dogs": "restricted", "gov": "Reedley, City of"}, {"fid": 6147874, "name": "Limantour Beach", "lat": 38.0280339, "lng": -122.8986205, "dogs": "restricted", "gov": "United States National Park Service"}, {"fid": 6190447, "name": "Dillon Beach", "lat": 38.2496943, "lng": -122.967908, "dogs": "restricted", "gov": null}, {"fid": 6226444, "name": "Poplar Beach", "lat": 37.4552756, "lng": -122.4448064, "dogs": "yes", "gov": "Half Moon Bay, City of"}, {"fid": 6228407, "name": "Bolinas Beach", "lat": 37.9061979, "lng": -122.6832018, "dogs": "restricted", "gov": "Marin County Open Space District"}, {"fid": 6234125, "name": "Hidden Beach", "lat": 36.9577752, "lng": -121.8890351, "dogs": "yes", "gov": "Santa Cruz, County of"}, {"fid": 6245613, "name": "Monastery Beach", "lat": 36.5236996, "lng": -121.9265056, "dogs": "yes", "gov": "California Department of Parks and Recreation"}, {"fid": 6257700, "name": "Oceanside Habor", "lat": 33.180407, "lng": -117.354074, "dogs": "no", "gov": "Oceanside, City of"}, {"fid": 6315980, "name": "El Porto Beach", "lat": 33.9045002, "lng": -118.4229398, "dogs": "yes", "gov": "Los Angeles, County of"}, {"fid": 6338031, "name": "Crystal Cove State Beach", "lat": 33.5680969, "lng": -117.8342056, "dogs": "restricted", "gov": "California Department of Parks and Recreation"}, {"fid": 6371103, "name": "Doheny State Beach", "lat": 33.4621064, "lng": -117.6869982, "dogs": "restricted", "gov": "California Department of Parks and Recreation"}, {"fid": 6377780, "name": "Table Tops", "lat": 32.9979293, "lng": -117.2764564, "dogs": "yes", "gov": "Solana Beach, City of"}, {"fid": 6385439, "name": "Surfers Beach", "lat": 37.499735, "lng": -122.468267, "dogs": "restricted", "gov": "San Mateo County Parks and Recreation Dept., County of"}, {"fid": 6400925, "name": "Pebble Beach", "lat": 36.5677354, "lng": -121.9494824, "dogs": "no", "gov": null}, {"fid": 6412980, "name": "Salt Creek Beach", "lat": 33.4773869, "lng": -117.7230797, "dogs": "restricted", "gov": "Orange, County of"}, {"fid": 6425763, "name": "Kiddie Beach Park", "lat": 34.1598029, "lng": -119.222042, "dogs": "restricted", "gov": "Oxnard, City of"}, {"fid": 6426310, "name": "Sunset Beach", "lat": 34.0380445, "lng": -118.5560042, "dogs": "no", "gov": "Los Angeles County Department of Beaches and Harbors, County of"}, {"fid": 6436260, "name": "Pelican Point", "lat": 33.5793461, "lng": -117.8522823, "dogs": "restricted", "gov": "California Department of Parks and Recreation"}, {"fid": 6444464, "name": "Regan Beach", "lat": 38.9443821, "lng": -119.9860239, "dogs": "yes", "gov": "South Lake Tahoe, City of"}, {"fid": 6452599, "name": "Camel Point Beach", "lat": 33.5068111, "lng": -117.7502275, "dogs": "yes", "gov": "Orange, County of"}, {"fid": 6525233, "name": "Huntington Cliffs", "lat": 33.67151, "lng": -118.0231286, "dogs": "restricted", "gov": "Huntington City Beach"}, {"fid": 6542203, "name": "Sunset Beach", "lat": 33.7182907, "lng": -118.0732652, "dogs": "no", "gov": "Orange, County of"}, {"fid": 6545056, "name": "Laguna Main Beach", "lat": 33.5405915, "lng": -117.7832651, "dogs": "seasonal", "gov": "Laguna Beach, City of"}, {"fid": 6576048, "name": "Arroyo Laguna Beach", "lat": 35.65213, "lng": -121.2216, "dogs": "restricted", "gov": "California Department of Parks and Recreation"}, {"fid": 6658007, "name": "Ten Mile River", "lat": 39.5418779, "lng": -123.7703976, "dogs": "restricted", "gov": "California Department of Parks and Recreation"}, {"fid": 6678279, "name": "Surfside Beach", "lat": 33.7256795, "lng": -118.0824037, "dogs": "no", "gov": "Orange, County of"}, {"fid": 6702536, "name": "El Segundo Beach", "lat": 33.9160309, "lng": -118.4293985, "dogs": "no", "gov": "Los Angeles, County of"}, {"fid": 6717363, "name": "Crissy Field South Beach", "lat": 37.8062455, "lng": -122.4543404, "dogs": "no", "gov": "United States National Park Service"}, {"fid": 6726953, "name": "China Beach", "lat": 37.7879627, "lng": -122.4911857, "dogs": "no", "gov": "United States National Park Service"}, {"fid": 6754273, "name": "William Randolph Hearst Memorial State Beach", "lat": 35.5931431, "lng": -121.1256478, "dogs": "restricted", "gov": "California Department of Parks and Recreation"}, {"fid": 6762614, "name": "Clam Beach", "lat": 41.0162007, "lng": -124.1142798, "dogs": "restricted", "gov": "California Department of Parks and Recreation"}, {"fid": 6786583, "name": "Chapman Estate", "lat": 35.15332, "lng": -120.674545, "dogs": "yes", "gov": "Pismo Beach, City of"}, {"fid": 6811197, "name": "Panther Beach", "lat": 36.9910635, "lng": -122.1688742, "dogs": "no", "gov": "California Department of Parks and Recreation"}, {"fid": 6813170, "name": "Fort Funston", "lat": 37.719179, "lng": -122.5051228, "dogs": "no", "gov": "United States National Park Service"}, {"fid": 6830335, "name": "Little Corona del Mar Beach", "lat": 33.5900884, "lng": -117.8691038, "dogs": "restricted", "gov": "Newport Beach, City of"}, {"fid": 6830586, "name": "Pillar Point Harbor Beach", "lat": 37.5034293, "lng": -122.4796143, "dogs": "restricted", "gov": null}, {"fid": 6855132, "name": "Tiffany Beach", "lat": 37.8506455, "lng": -122.4793625, "dogs": "restricted", "gov": "Sausalito, City of"}, {"fid": 6857846, "name": "Bombay Beach", "lat": 33.350668, "lng": -115.7175908, "dogs": "restricted", "gov": "United States Bureau of Reclamation"}, {"fid": 6914339, "name": "Hammonds Beach", "lat": 34.416646, "lng": -119.6351373, "dogs": "restricted", "gov": "Santa Barbara, County of"}, {"fid": 6919301, "name": "Aeneas Beach", "lat": 36.6119558, "lng": -121.8974827, "dogs": "restricted", "gov": "Monterey Peninsula Recreational Trail Joint Powers Authority"}, {"fid": 6919647, "name": "Malibu Beaches", "lat": 34.002873, "lng": -118.804924, "dogs": "no", "gov": "Point Dume NP"}, {"fid": 6950869, "name": "Arroyo Quemada Beach", "lat": 34.4685219, "lng": -120.1137185, "dogs": "restricted", "gov": "California Department of Parks and Recreation"}, {"fid": 6966063, "name": "Buccaneer Beach", "lat": 33.1767482, "lng": -117.3691267, "dogs": "no", "gov": "Oceanside, City of"}, {"fid": 7000223, "name": "Perris Beach", "lat": 33.862968, "lng": -117.1895957, "dogs": "restricted", "gov": "California Department of Parks and Recreation"}, {"fid": 7022197, "name": "Cameo Shores Beach", "lat": 33.5870556, "lng": -117.8656382, "dogs": "yes", "gov": "Orange, County of"}, {"fid": 7051072, "name": "Pacific Beach", "lat": 32.7961494, "lng": -117.2573858, "dogs": "yes", "gov": "San Diego, City of"}, {"fid": 7055490, "name": "Island Beach", "lat": 36.8047222, "lng": -121.7880556, "dogs": "restricted", "gov": null}, {"fid": 7058195, "name": "Arroyo De La Cruz Beach", "lat": 35.7083111, "lng": -121.3077392, "dogs": "restricted", "gov": "California Department of Parks and Recreation"}, {"fid": 7096044, "name": "Roosevelt Beach", "lat": 37.4359, "lng": -122.42721, "dogs": "restricted", "gov": "Half Moon Bay, City of"}, {"fid": 7130035, "name": "Benicia Public Pier & Beach", "lat": 38.0440608, "lng": -122.1625024, "dogs": "yes", "gov": "Benicia, City of"}, {"fid": 7142720, "name": "Sculptured Beach", "lat": 38.0102031, "lng": -122.8447146, "dogs": "restricted", "gov": "United States National Park Service"}, {"fid": 7166025, "name": "South Casa Beach", "lat": 32.8463918, "lng": -117.2787148, "dogs": "restricted", "gov": "San Diego, City of"}, {"fid": 7187807, "name": "Laguna Creek Beach", "lat": 36.9830405, "lng": -122.1554174, "dogs": "no", "gov": "California Department of Parks and Recreation"}, {"fid": 7190994, "name": "Shell Beach", "lat": 38.4172502, "lng": -123.1055193, "dogs": "yes", "gov": "California Department of Parks and Recreation"}, {"fid": 7196391, "name": "Venice Beach", "lat": 37.47959, "lng": -122.45093, "dogs": "restricted", "gov": "California Department of Parks and Recreation"}, {"fid": 7206736, "name": "Lifeguard Tower 18", "lat": 33.605827, "lng": -117.9243386, "dogs": "restricted", "gov": "Newport Beach, City of"}, {"fid": 7228554, "name": "Cowell’s Beach", "lat": 36.9616202, "lng": -122.0244169, "dogs": "yes", "gov": "Santa Cruz, City of"}, {"fid": 7243423, "name": "North Star Beach", "lat": 33.6247954, "lng": -117.8933269, "dogs": "restricted", "gov": "Newport Beach, City of"}, {"fid": 7250367, "name": "El Sol Beach", "lat": 34.0417474, "lng": -118.9070678, "dogs": "restricted", "gov": "Mountains Recreation and Conservation Authority"}, {"fid": 7264184, "name": "Point Reyes Beach North", "lat": 38.0777702, "lng": -122.9744983, "dogs": "restricted", "gov": "United States National Park Service"}, {"fid": 7300560, "name": "Capistrano Beach", "lat": 33.4551168209904, "lng": -117.668564042576, "dogs": "restricted", "gov": "California Department of Parks and Recreation"}, {"fid": 7336997, "name": "Cove Beach", "lat": 37.1170205, "lng": -122.309031, "dogs": "no", "gov": "Año Nuevo Coast NP"}, {"fid": 7347935, "name": "Kelham Beach", "lat": 37.9968137, "lng": -122.8217733, "dogs": "restricted", "gov": "Point Reyes National Seashore"}, {"fid": 7386318, "name": "Starlight Beach", "lat": 38.54289, "lng": -121.56191, "dogs": "restricted", "gov": "West Sacramento, City of"}, {"fid": 7386594, "name": "Alameda Point Shoreline", "lat": 37.7708219, "lng": -122.2953144, "dogs": "restricted", "gov": "East Bay Regional Park District"}, {"fid": 7451351, "name": "Big Rock Beach", "lat": 34.0365997, "lng": -118.6103141, "dogs": "restricted", "gov": "Malibu, City of"}, {"fid": 7503874, "name": "Sycamore Island", "lat": 36.8545379, "lng": -119.8230221, "dogs": "yes", "gov": "San Joaquin River Parkway and Conservation Trust"}, {"fid": 7520091, "name": "Ocean & Junipero", "lat": 33.7629519, "lng": -118.1687861, "dogs": "restricted", "gov": "Long Beach, City of"}, {"fid": 7550866, "name": "Steep Ravine Beach", "lat": 37.8849786, "lng": -122.6283342, "dogs": "restricted", "gov": "California Department of Parks and Recreation"}, {"fid": 7556011, "name": "Sneaker Beach", "lat": 33.506054, "lng": -115.918293, "dogs": "restricted", "gov": "California Department of Parks and Recreation"}, {"fid": 7579679, "name": "Middle Beach", "lat": 33.3441302, "lng": -118.325597, "dogs": "restricted", "gov": "Avalon, City of"}, {"fid": 7625501, "name": "Kiteboard Beach", "lat": 37.5714091, "lng": -122.2786194, "dogs": "yes", "gov": "Foster City, City of"}, {"fid": 7629278, "name": "Otsuchi Point", "lat": 39.4451707, "lng": -123.8152112, "dogs": "restricted", "gov": "Fort Bragg, City of"}, {"fid": 7636256, "name": "Children's Pool", "lat": 32.8475343, "lng": -117.2785833, "dogs": "restricted", "gov": "United States Bureau of Land Management"}, {"fid": 7641905, "name": "North Manhattan Beach", "lat": 33.8882518, "lng": -118.4096894, "dogs": "yes", "gov": "Manhattan Beach, City of"}, {"fid": 7650507, "name": "Sand City Beach", "lat": 36.6109635, "lng": -121.8595806, "dogs": "restricted", "gov": "California Department of Parks and Recreation"}, {"fid": 7653036, "name": "Corona del Mar State Beach", "lat": 33.5933058, "lng": -117.8753466, "dogs": "restricted", "gov": "Newport Beach, City of"}, {"fid": 7659228, "name": "Tecolote Canyon Beach", "lat": 34.431496, "lng": -119.907709, "dogs": "restricted", "gov": "Goleta, City of"}, {"fid": 7667652, "name": "Beer Can Beach", "lat": 36.9539376, "lng": -121.8849448, "dogs": "restricted", "gov": null}, {"fid": 7696843, "name": "Natural Bridges State Beach", "lat": 36.9503719, "lng": -122.057333, "dogs": "restricted", "gov": "California Department of Parks and Recreation"}, {"fid": 7762348, "name": "Bonny Doon Beach", "lat": 37.0003829, "lng": -122.1815657, "dogs": "no", "gov": "California Department of Parks and Recreation"}, {"fid": 7822128, "name": "Life's A Beach Camps", "lat": 32.7863718, "lng": -117.2523656, "dogs": "no", "gov": "San Diego, City of"}, {"fid": 7828112, "name": "Pirate’s Cove Beach", "lat": 33.5940428, "lng": -117.8781127, "dogs": "restricted", "gov": "Newport Beach, City of"}, {"fid": 7831911, "name": "Montage Laguna Beach", "lat": 33.5135482, "lng": -117.7567595, "dogs": "seasonal", "gov": "Laguna Beach, City of"}, {"fid": 7835013, "name": "Ocean Beach Community Park", "lat": 32.7444444, "lng": -117.2461111, "dogs": "yes", "gov": "San Diego, City of"}, {"fid": 7847271, "name": "La Jolla Shores", "lat": 32.856987, "lng": -117.257574, "dogs": "yes", "gov": "San Diego, City of"}, {"fid": 7878160, "name": "Gleason Beach", "lat": 38.3908783, "lng": -123.0859032, "dogs": "restricted", "gov": "California Department of Parks and Recreation"}, {"fid": 7883790, "name": "Albany Beach", "lat": 37.8886496, "lng": -122.3165466, "dogs": "yes", "gov": "East Bay Regional Park District"}, {"fid": 7889719, "name": "Staircase Beach", "lat": 34.047277, "lng": -118.950278, "dogs": "restricted", "gov": "California Department of Parks and Recreation"}, {"fid": 7930440, "name": "Amarillo Beach", "lat": 34.029957, "lng": -118.707838, "dogs": "restricted", "gov": "Mountains Recreation and Conservation Authority"}, {"fid": 8042160, "name": "Oak Bottom Beach", "lat": 40.6481169, "lng": -122.5898246, "dogs": "no", "gov": "United States National Park Service"}, {"fid": 8119639, "name": "Kings Beach", "lat": 39.2365163, "lng": -120.0272654, "dogs": "restricted", "gov": "California Department of Parks and Recreation"}, {"fid": 8135145, "name": "Playa Del Rey Beach", "lat": 33.9573326, "lng": -118.4508777, "dogs": "no", "gov": "Los Angeles, County of"}, {"fid": 8143000, "name": "Shaw’s Cove Beach", "lat": 33.5456958, "lng": -117.7983928, "dogs": "seasonal", "gov": "Laguna Beach, City of"}, {"fid": 8146130, "name": "Carmel River Bird Sanctuary", "lat": 41.1353823, "lng": -124.1546596, "dogs": "restricted", "gov": "California Department of Parks and Recreation"}, {"fid": 8161840, "name": "Two Harbors-the Isthmus of Catalina", "lat": 33.4399947, "lng": -118.4983253, "dogs": "unknown", "gov": null}, {"fid": 8189405, "name": "Redondo Beach", "lat": 37.4403237, "lng": -122.4440304, "dogs": "restricted", "gov": "Coastside Land Trust"}, {"fid": 8210039, "name": "Andrew Molera Beach", "lat": 36.2536434, "lng": -121.8361537, "dogs": "no", "gov": "California Department of Parks and Recreation"}, {"fid": 8259283, "name": "Quarry Beach", "lat": 37.8591538, "lng": -122.4209635, "dogs": "restricted", "gov": "California Department of Parks and Recreation"}, {"fid": 8299067, "name": "Rockaway Beach", "lat": 37.6079931, "lng": -122.4981058, "dogs": "restricted", "gov": "Pacifica, City of"}, {"fid": 8308105, "name": "Russian Gulch State Park Beach", "lat": 39.3294049, "lng": -123.8049364, "dogs": "restricted", "gov": "California Department of Parks and Recreation"}, {"fid": 8456473, "name": "More Mesa Beach - Santa Barbara", "lat": 34.4180887, "lng": -119.7938597, "dogs": "restricted", "gov": null}, {"fid": 8463512, "name": "Strawberry Beach", "lat": 36.9562535, "lng": -122.1021044, "dogs": "no", "gov": "California Department of Parks and Recreation"}, {"fid": 8468018, "name": "Stengel Beach", "lat": 38.7176049, "lng": -123.4612395, "dogs": "yes", "gov": "Sonoma County Regional Parks Dept., County of"}, {"fid": 8485083, "name": "China Cove", "lat": 36.508644, "lng": -121.941017, "dogs": "no", "gov": "California Department of Parks and Recreation"}, {"fid": 8485358, "name": "Malpaso Creek Beach", "lat": 36.4813615, "lng": -121.9381894, "dogs": "no", "gov": "United States Bureau of Land Management"}, {"fid": 8516863, "name": "Public Beach", "lat": 38.267767, "lng": -120.3408451, "dogs": "restricted", "gov": "Calaveras, County of"}, {"fid": 8525427, "name": "Ventura City Beach", "lat": 34.261711, "lng": -119.27363, "dogs": "restricted", "gov": "California Department of Parks and Recreation"}, {"fid": 8558084, "name": "Surfers Point Beach", "lat": 34.2733055, "lng": -119.3044037, "dogs": "yes", "gov": "Ventura, City of"}, {"fid": 8569217, "name": "Kilkenny Beach", "lat": 38.1459187, "lng": -122.9040259, "dogs": "restricted", "gov": "United States National Park Service"}, {"fid": 8606078, "name": "North Pacific Beach", "lat": 32.8015649, "lng": -117.2598991, "dogs": "yes", "gov": "San Diego, City of"}, {"fid": 8610553, "name": "Santa Cruz Cliffs", "lat": 32.7437444, "lng": -117.2550201, "dogs": "yes", "gov": "San Diego, City of"}, {"fid": 8631384, "name": "Marshall Beach", "lat": 38.1624279, "lng": -122.9156547, "dogs": "restricted", "gov": "United States National Park Service"}, {"fid": 8646226, "name": "Sandy Cove Beach", "lat": 36.7879769, "lng": -118.9012844, "dogs": "yes", "gov": "United States Forest Service"}, {"fid": 8668392, "name": "Playa de Long Beach", "lat": 33.76233, "lng": -118.164763, "dogs": "restricted", "gov": "Long Beach, City of"}, {"fid": 8720817, "name": "Labrynth", "lat": 37.787902, "lng": -122.505694, "dogs": "restricted", "gov": "United States National Park Service"}, {"fid": 8778653, "name": "Seaside Reef", "lat": 33.0017273, "lng": -117.2780454, "dogs": "yes", "gov": "California Department of Parks and Recreation"}, {"fid": 8783604, "name": "Commons Beach", "lat": 39.1695291, "lng": -120.1416001, "dogs": "restricted", "gov": "Tahoe City Public Utilities District"}, {"fid": 8899788, "name": "Isla Vista County Park", "lat": 34.4089186, "lng": -119.8678706, "dogs": "restricted", "gov": "Isla Vista Recreation and Park District"}, {"fid": 8912496, "name": "Mission Beach", "lat": 32.7733562, "lng": -117.2533357, "dogs": "no", "gov": "San Diego, City of"}, {"fid": 8913641, "name": "Avalon Beach", "lat": 33.3453942, "lng": -118.3268803, "dogs": "restricted", "gov": "Avalon, City of"}, {"fid": 8934680, "name": "Tomales Beach", "lat": 38.1753823, "lng": -122.9234738, "dogs": "restricted", "gov": "United States National Park Service"}, {"fid": 8936244, "name": "La Conchita Beach", "lat": 34.3639808201951, "lng": -119.449937412593, "dogs": "restricted", "gov": null}, {"fid": 8940399, "name": "Monterey State Beach", "lat": 36.6129423, "lng": -121.8562401, "dogs": "restricted", "gov": "California Department of Parks and Recreation"}, {"fid": 9011215, "name": "McAbee Beach", "lat": 36.615674, "lng": -121.8994153, "dogs": "restricted", "gov": "Monterey Peninsula Recreational Trail Joint Powers Authority"}, {"fid": 9031619, "name": "La Jolla Cove", "lat": 32.8504513, "lng": -117.2730291, "dogs": "yes", "gov": "San Diego, City of"}, {"fid": 9116552, "name": "Palm Beach", "lat": 36.8661872, "lng": -121.8197505, "dogs": "restricted", "gov": "California Department of Parks and Recreation"}, {"fid": 9138408, "name": "Seadrift Beach", "lat": 37.9068163, "lng": -122.6792085, "dogs": "restricted", "gov": null}, {"fid": 9177951, "name": "Palisades Beach", "lat": 34.0233333, "lng": -118.5130556, "dogs": "no", "gov": "Santa Monica, City of"}, {"fid": 9180688, "name": "Cayucos State Beach", "lat": 35.4483405, "lng": -120.9054734, "dogs": "yes", "gov": "California Department of Parks and Recreation"}, {"fid": 9185854, "name": "Paradise Beach", "lat": 38.5818125, "lng": -121.4231004, "dogs": "yes", "gov": "Sacramento, County of"}, {"fid": 9280054, "name": "Little Sur River Beach", "lat": 36.3327031, "lng": -121.8935967, "dogs": null, "gov": null}, {"fid": 9324607, "name": "Gualala River", "lat": 38.7690332, "lng": -123.5338353, "dogs": "yes", "gov": "Sonoma County Regional Parks Dept., County of"}, {"fid": 9336804, "name": "Clam Beach", "lat": 38.5119216, "lng": -123.2428207, "dogs": "restricted", "gov": "California Department of Parks and Recreation"}, {"fid": 9356600, "name": "Top Of The Beach", "lat": 32.7837605, "lng": -117.2538035, "dogs": "no", "gov": "San Diego, City of"}, {"fid": 9431162, "name": "West Street Beach", "lat": 33.5045103, "lng": -117.7477869, "dogs": "seasonal", "gov": "Orange, County of"}, {"fid": 9488393, "name": "Will Rogers State Beach", "lat": 34.034411, "lng": -118.5353591, "dogs": "no", "gov": "Los Angeles County Department of Beaches and Harbors, County of"}, {"fid": 9505369, "name": "Peninsula Beach", "lat": 33.7508496, "lng": -118.1251619, "dogs": "restricted", "gov": "Long Beach, City of"}, {"fid": 9537622, "name": "East Beach", "lat": 39.3259073, "lng": -120.2393585, "dogs": "restricted", "gov": "California Department of Parks and Recreation"}, {"fid": 9563909, "name": "Buccaneer Beach", "lat": 33.1766404, "lng": -117.3690784, "dogs": "no", "gov": "Oceanside, City of"}, {"fid": 9645006, "name": "Russian Gulch State Beach", "lat": 38.4658502, "lng": -123.1552979, "dogs": "yes", "gov": "California Department of Parks and Recreation"}, {"fid": 9659260, "name": "Mussel Shoals Beach", "lat": 34.3559876, "lng": -119.4429731, "dogs": "restricted", "gov": null}, {"fid": 9660700, "name": "Davenport Beach", "lat": 37.0089614, "lng": -122.1931815, "dogs": "no", "gov": null}, {"fid": 9676041, "name": "Swede's Beach", "lat": 37.847998, "lng": -122.4800116, "dogs": "yes", "gov": "Sausalito, City of"}, {"fid": 9708658, "name": "The Falls Beach", "lat": 37.3302846, "lng": -119.5712296, "dogs": "restricted", "gov": "United States Forest Service"}, {"fid": 9755536, "name": "Camino De La Costa Beach", "lat": 32.8186504, "lng": -117.2760728, "dogs": "restricted", "gov": "San Diego, City of"}, {"fid": 9770811, "name": "Mad River Beach", "lat": 40.9442437, "lng": -124.1309449, "dogs": "yes", "gov": "McKinleyville Land Trust"}, {"fid": 9899366, "name": "Doran Beach", "lat": 38.3128378, "lng": -123.045845, "dogs": "yes", "gov": "Sonoma County Regional Parks Dept., County of"}, {"fid": 9900198, "name": "Red Rock Beach", "lat": 37.8893245, "lng": -122.6329476, "dogs": "restricted", "gov": "California Department of Parks and Recreation"}, {"fid": 9923651, "name": "North Manhattan Beach", "lat": 33.9009918, "lng": -118.4207082, "dogs": "yes", "gov": "Los Angeles County Department of Beaches and Harbors, County of"}, {"fid": 9937365, "name": "Monterey Municipal Beach", "lat": 36.601102, "lng": -121.887367, "dogs": "restricted", "gov": "California Department of Parks and Recreation"}, {"fid": 9978531, "name": "Descanso Beach", "lat": 33.3507766, "lng": -118.3284831, "dogs": "restricted", "gov": "Avalon, City of"}, {"fid": 10017426, "name": "Walking on West Cliff", "lat": 36.950125, "lng": -122.0458755, "dogs": "yes", "gov": "Santa Cruz, City of"}, {"fid": 10039382, "name": "Van Damme Beach", "lat": 39.2731161, "lng": -123.7908769, "dogs": "restricted", "gov": "California Department of Parks and Recreation"}, {"fid": 10044665, "name": "Shark Fin Cove", "lat": 37.0040864, "lng": -122.1856606, "dogs": "no", "gov": "California Department of Parks and Recreation"}, {"fid": 10074488, "name": "McClures Beach", "lat": 38.1875986, "lng": -122.9647196, "dogs": "restricted", "gov": "United States National Park Service"}, {"fid": 10109606, "name": "Sea View Beach", "lat": 33.2118183, "lng": -115.8447885, "dogs": "yes", "gov": "United States Bureau of Land Management"}, {"fid": 10133464, "name": "Ten Mile Beach", "lat": 39.5262749, "lng": -123.7764047, "dogs": "no", "gov": "Inglenook Fen-Ten Mile Dunes NP"}, {"fid": 10136361, "name": "Palomarin Beach", "lat": 37.9352263, "lng": -122.7540851, "dogs": "restricted", "gov": "Point Reyes National Seashore"}, {"fid": 10201033, "name": "Newport Beach", "lat": 33.6077098236466, "lng": -117.928837098434, "dogs": "restricted", "gov": "Newport Beach, City of"}, {"fid": 10202995, "name": "Playa Redondo", "lat": 33.8176462, "lng": -118.3905809, "dogs": "no", "gov": "Los Angeles County Department of Beaches and Harbors, County of"}, {"fid": 10238447, "name": "10th Street Beach", "lat": 33.6061443, "lng": -117.9125476, "dogs": "restricted", "gov": "Newport Beach, City of"}, {"fid": 10249241, "name": "Thompson Beach", "lat": 34.479687, "lng": -114.4022598, "dogs": "restricted", "gov": "Chemehuevi LAR"}, {"fid": 10251011, "name": "Pier Shoals Public Beach", "lat": 34.3531807, "lng": -119.4288174, "dogs": null, "gov": null}, {"fid": 10259473, "name": "Campus Point Beach", "lat": 34.4047989, "lng": -119.8441486, "dogs": "yes", "gov": "United States Bureau of Land Management"}, {"fid": 10277915, "name": "Venice Beach", "lat": 33.9901185, "lng": -118.4767778, "dogs": "restricted", "gov": "Los Angeles Department of Recreation and Parks, City of"}, {"fid": 10298286, "name": "Devils Slide Beach", "lat": 37.565304, "lng": -122.5142458, "dogs": "yes", "gov": "California Department of Parks and Recreation"}, {"fid": 10319330, "name": "South Spit", "lat": 40.7272381, "lng": -124.25421, "dogs": "restricted", "gov": "California Department of Fish and Wildlife"}, {"fid": 10338531, "name": "Baby Beach", "lat": 33.4627571, "lng": -117.7048851, "dogs": "restricted", "gov": "Orange, County of"}, {"fid": 10345492, "name": "China Cove Beach", "lat": 39.3197489, "lng": -120.2521745, "dogs": "restricted", "gov": "California Department of Parks and Recreation"}, {"fid": 10357049, "name": "La Jolla Beach", "lat": 34.0827778, "lng": -119.0352778, "dogs": "restricted", "gov": "California Department of Parks and Recreation"}, {"fid": 10455997, "name": "North Cove Public Beach", "lat": 32.7759272, "lng": -117.2378647, "dogs": "restricted", "gov": "San Diego, City of"}, {"fid": 10478387, "name": "Avalon City Beach", "lat": 33.3438493, "lng": -118.3256936, "dogs": "restricted", "gov": "Avalon, City of"}, {"fid": 10504196, "name": "Portuguese Beach", "lat": 38.3818602, "lng": -123.0816692, "dogs": "yes", "gov": "California Department of Parks and Recreation"}, {"fid": 10510987, "name": "Big River Beach", "lat": 39.3030571, "lng": -123.7935247, "dogs": "yes", "gov": "California Department of Parks and Recreation"}, {"fid": 10513190, "name": "Balboa Pier", "lat": 33.6007168246962, "lng": -117.900088093367, "dogs": "no", "gov": "Newport Beach, City of"}, {"fid": 10550198, "name": "Cabrillo Beach", "lat": 33.4194409, "lng": -118.4042039, "dogs": "yes", "gov": "Santa Catalina Island Conservancy"}, {"fid": 10574548, "name": "25th Street Beach", "lat": 32.9697209, "lng": -117.2691309, "dogs": "yes", "gov": "Del Mar, City of"}, {"fid": 10577091, "name": "San Quentin Beach", "lat": 37.941641, "lng": -122.482319, "dogs": "yes", "gov": "San Rafael, City of"}, {"fid": 10583660, "name": "Bird Rock", "lat": 36.5916182, "lng": -121.9646198, "dogs": "restricted", "gov": null}, {"fid": 10666182, "name": "McGrath State Beach", "lat": 34.2222177, "lng": -119.2613554, "dogs": "restricted", "gov": "California Department of Parks and Recreation"}, {"fid": 10684220, "name": "Crown Point Beach", "lat": 32.7858043, "lng": -117.2317734, "dogs": "restricted", "gov": "San Diego, City of"}, {"fid": 10708769, "name": "Carruthers Cove Beach", "lat": 41.4577143, "lng": -124.0657652, "dogs": "restricted", "gov": "California Department of Parks and Recreation"}, {"fid": 10711481, "name": "Manhattan Beach", "lat": 33.8813021, "lng": -118.410976, "dogs": "no", "gov": "Los Angeles County Department of Beaches and Harbors, County of"}, {"fid": 10754608, "name": "Poche Beach", "lat": 33.4406128, "lng": -117.6453961, "dogs": "no", "gov": "Orange, County of"}, {"fid": 10806639, "name": "Cottonwood Beach", "lat": 33.3762108, "lng": -118.478837, "dogs": "yes", "gov": "Santa Catalina Island Conservancy"}, {"fid": 10816643, "name": "South Jetty", "lat": 40.7544093, "lng": -124.2369175, "dogs": "restricted", "gov": "California Department of Fish and Wildlife"}, {"fid": 10874604, "name": "Seal Cove Beach", "lat": 37.5203595, "lng": -122.5145407, "dogs": "yes", "gov": "San Mateo County Parks and Recreation Dept., County of"}, {"fid": 10887241, "name": "Greyhound Rock Beach Access", "lat": 37.077848, "lng": -122.267734, "dogs": "yes", "gov": "Santa Cruz, County of"}, {"fid": 10895401, "name": "Capistrano Beach Park", "lat": 33.4543877, "lng": -117.6672837, "dogs": "restricted", "gov": "California Department of Parks and Recreation"}, {"fid": 10944079, "name": "Bird Rock Beach", "lat": 32.8141758, "lng": -117.2733006, "dogs": "restricted", "gov": "United States Bureau of Land Management"}, {"fid": 10958505, "name": "Cowell Ranch State Beach", "lat": 37.4200802, "lng": -122.4352014, "dogs": "restricted", "gov": "California State Coastal Conservancy"}, {"fid": 10962927, "name": "El Pescador State Beach", "lat": 34.0393582, "lng": -118.8932386, "dogs": "no", "gov": "California Department of Parks and Recreation"}, {"fid": 10964814, "name": "Point Joe", "lat": 36.6086838, "lng": -121.952981, "dogs": "restricted", "gov": null}, {"fid": 10969843, "name": "Tourmaline Beach", "lat": 32.8047257, "lng": -117.2620207, "dogs": "yes", "gov": "San Diego, City of"}, {"fid": 10970222, "name": "Beacon's Beach", "lat": 33.0652253, "lng": -117.3047747, "dogs": "yes", "gov": "Encinitas, City of"}, {"fid": 10993617, "name": "Candlestick Point Beach", "lat": 37.7110707, "lng": -122.3802227, "dogs": "yes", "gov": "California Department of Parks and Recreation"}, {"fid": 10994158, "name": "Fanshell Beach", "lat": 36.5824048, "lng": -121.9680852, "dogs": "restricted", "gov": null}, {"fid": 11007467, "name": "Carmet Beach", "lat": 38.3733398, "lng": -123.0772483, "dogs": "yes", "gov": "California Department of Parks and Recreation"}, {"fid": 11030120, "name": "22nd Street Beach", "lat": 33.8686963, "lng": -118.4052587, "dogs": "yes", "gov": "Los Angeles County Department of Beaches and Harbors, County of"}, {"fid": 11098008, "name": "Puerco Beach", "lat": 34.0313941, "lng": -118.718766, "dogs": "restricted", "gov": "Malibu, City of"}, {"fid": 11116268, "name": "Clam Beach County Park", "lat": 40.9969375, "lng": -124.1172695, "dogs": "yes", "gov": "Humboldt, County of"}, {"fid": 11132736, "name": "Naples Beach", "lat": 37.4885519, "lng": -122.4558097, "dogs": "restricted", "gov": "California Department of Parks and Recreation"}, {"fid": 11134904, "name": "Santa Ana River Jetties", "lat": 33.6253225, "lng": -117.9502487, "dogs": "yes", "gov": "Orange, County of"}, {"fid": 11163578, "name": "North Salmon Creek Beach", "lat": 38.3565995, "lng": -123.0677533, "dogs": "no", "gov": "California Department of Parks and Recreation"}, {"fid": 11189645, "name": "Trinidad Bay Bluff", "lat": 41.0572688, "lng": -124.1427934, "dogs": "restricted", "gov": "Trinidad, City of"}, {"fid": 11198006, "name": "Pirate's Cove", "lat": 36.8589565, "lng": -119.1045246, "dogs": "restricted", "gov": "United States Forest Service"}, {"fid": 11228030, "name": "South Mission Beach", "lat": 32.7598382, "lng": -117.2512938, "dogs": "no", "gov": "San Diego, City of"}, {"fid": 11239283, "name": "Imperial Beach", "lat": 32.5793924, "lng": -117.1327436, "dogs": "yes", "gov": "Imperial Beach, City of"}, {"fid": 11247635, "name": "Dry Lagoon Beach", "lat": 41.2228947, "lng": -124.1088377, "dogs": "restricted", "gov": "California Department of Parks and Recreation"}, {"fid": 11336248, "name": "Beaches & Harbors Los Angeles County", "lat": 34.0366121, "lng": -118.6776617, "dogs": "restricted", "gov": "Los Angeles County Department of Beaches and Harbors, County of"}, {"fid": 11337020, "name": "Alamitos Bay Beach", "lat": 33.7561111, "lng": -118.1313889, "dogs": "restricted", "gov": "Long Beach, City of"}, {"fid": 11342582, "name": "Imperial Beach", "lat": 32.5764607, "lng": -117.1323919, "dogs": "restricted", "gov": "Imperial Beach, City of"}, {"fid": 11366910, "name": "Montara State Beach", "lat": 37.5501915, "lng": -122.5140059, "dogs": "yes", "gov": "California Department of Parks and Recreation"}, {"fid": 11398897, "name": "Moonstone Beach", "lat": 41.0279121, "lng": -124.1110565, "dogs": "restricted", "gov": "Trinidad Coastal Land Trust"}, {"fid": 11409623, "name": "Alan Sieroty Beach", "lat": 38.1074208, "lng": -122.8470876, "dogs": "restricted", "gov": "California Department of Parks and Recreation"}, {"fid": 11435358, "name": "Bessemer Beach", "lat": 32.718433, "lng": -117.233574, "dogs": "yes", "gov": "San Diego, City of"}, {"fid": 11458630, "name": "Duck Beach", "lat": 38.2350915, "lng": -122.9849718, "dogs": "restricted", "gov": "United States National Park Service"}, {"fid": 11461928, "name": "Skylandia State Park & Beach", "lat": 39.1833167, "lng": -120.1101565, "dogs": "restricted", "gov": "Tahoe City Public Utilities District"}, {"fid": 11477245, "name": "Rancho Palos Verdes Beach", "lat": 33.7412032, "lng": -118.4080696, "dogs": "restricted", "gov": "United States Coast Guard"}, {"fid": 11480889, "name": "Gray Whale Cove State Beach", "lat": 37.5652026, "lng": -122.5141743, "dogs": "restricted", "gov": "California Department of Parks and Recreation"}, {"fid": 11496136, "name": "Tide Pools", "lat": 33.5903, "lng": -117.870384, "dogs": "restricted", "gov": "Newport Beach, City of"}, {"fid": 11556649, "name": "Jug Handle Beach", "lat": 39.3766025, "lng": -123.8183412, "dogs": "restricted", "gov": "California Department of Parks and Recreation"}, {"fid": 11558454, "name": "Coronado Dog Beach", "lat": 32.6865237, "lng": -117.1917853, "dogs": "restricted", "gov": "Coronado, City of"}, {"fid": 11593150, "name": "Hooper Beach", "lat": 36.9708446, "lng": -121.9545558, "dogs": "no", "gov": "Capitola, City of"}, {"fid": 11599772, "name": "South Beach", "lat": 34.0459591, "lng": -118.9308656, "dogs": "restricted", "gov": "California Department of Parks and Recreation"}, {"fid": 11601894, "name": "Hidden Beach", "lat": 41.5778214, "lng": -124.100139, "dogs": "no", "gov": "United States National Park Service"}, {"fid": 11607657, "name": "Tunitas Creek Beach", "lat": 37.357854, "lng": -122.4010976, "dogs": "restricted", "gov": "San Mateo County Parks and Recreation Dept., County of"}, {"fid": 11618864, "name": "Noyo Beach", "lat": 39.429532, "lng": -123.8091571, "dogs": "yes", "gov": "Fort Bragg, City of"}, {"fid": 11622116, "name": "Twin Lakes State Beach", "lat": 36.9621603, "lng": -121.9987857, "dogs": "yes", "gov": "California Department of Parks and Recreation"}, {"fid": 11635763, "name": "Aquatic Park Beach", "lat": 37.8071859, "lng": -122.4227679, "dogs": "no", "gov": "United States National Park Service"}, {"fid": 11657826, "name": "Santa Monica State Beach", "lat": 34.0115107, "lng": -118.4988356, "dogs": "no", "gov": "Santa Monica, City of"}, {"fid": 11660861, "name": "Garrapata State Beach", "lat": 36.4195626, "lng": -121.9151152, "dogs": "restricted", "gov": "California Department of Parks and Recreation"}, {"fid": 11710969, "name": "Balboa Peninsula & Balboa Beach", "lat": 33.600451, "lng": -117.901721, "dogs": "yes", "gov": "Newport Beach, City of"}, {"fid": 11735608, "name": "Del Mar Dog Beach", "lat": 32.9761511, "lng": -117.2701049, "dogs": "yes", "gov": "Del Mar, City of"}, {"fid": 11807918, "name": "Zuma County Beach", "lat": 34.0217909, "lng": -118.8316441, "dogs": "no", "gov": "Los Angeles County Department of Beaches and Harbors, County of"}, {"fid": 11872891, "name": "Carlsbad Tide Pools", "lat": 33.128891, "lng": -117.3339954, "dogs": "restricted", "gov": "California Department of Parks and Recreation"}, {"fid": 11960348, "name": "Newport Beach", "lat": 33.5966049, "lng": -117.8902316, "dogs": null, "gov": null}, {"fid": 12000191, "name": "Dog Beach", "lat": 33.6758185, "lng": -118.0282152, "dogs": "restricted", "gov": "California Department of Parks and Recreation"}, {"fid": 12007157, "name": "Tecolote Shores North", "lat": 32.7717973, "lng": -117.2096843, "dogs": "restricted", "gov": "San Diego, City of"}, {"fid": 12021463, "name": "Monarch Bay Beach", "lat": 33.482432, "lng": -117.7258111, "dogs": "restricted", "gov": "Dana Point, City of"}, {"fid": 12028855, "name": "Rodeo Beach", "lat": 37.8306497, "lng": -122.5372982, "dogs": "no", "gov": "United States National Park Service"}, {"fid": 12034490, "name": "Asilomar State Beach", "lat": 36.6239105, "lng": -121.9402492, "dogs": "yes", "gov": "California Department of Parks and Recreation"}, {"fid": 12036972, "name": "Lifeguard Stand 74", "lat": 33.6283599, "lng": -117.9572546, "dogs": "restricted", "gov": "Orange, County of"}, {"fid": 12040353, "name": "Two Beaches", "lat": 34.8473129, "lng": -114.6017691, "dogs": "yes", "gov": "Needles, City of"}, {"fid": 12055589, "name": "Hidden Beach", "lat": 39.5244351, "lng": -123.7747192, "dogs": "restricted", "gov": "Inglenook Fen-Ten Mile Dunes NP"}, {"fid": 12081496, "name": "Moro Beach", "lat": 33.5590054, "lng": -117.8202236, "dogs": "restricted", "gov": "California Department of Parks and Recreation"}, {"fid": 12089075, "name": "Indian Beach", "lat": 38.1371324, "lng": -122.8966037, "dogs": "restricted", "gov": "California Department of Parks and Recreation"}, {"fid": 12126596, "name": "Stone Lagoon Beach", "lat": 41.249967, "lng": -124.1024875, "dogs": "restricted", "gov": "California Department of Parks and Recreation"}, {"fid": 12198805, "name": "Drakes Beach", "lat": 38.0272184, "lng": -122.9615668, "dogs": "restricted", "gov": "United States National Park Service"}, {"fid": 12210649, "name": "Pelican Point Beach", "lat": 37.4286243, "lng": -122.4368933, "dogs": "restricted", "gov": "Half Moon Bay, City of"}, {"fid": 12219118, "name": "Tourmaline Surfing Park", "lat": 32.8054203, "lng": -117.2624062, "dogs": "yes", "gov": "San Diego, City of"}, {"fid": 12220145, "name": "Tajiguas Beach", "lat": 34.4631659, "lng": -120.0995779, "dogs": "restricted", "gov": null}, {"fid": 12230081, "name": "North Beach", "lat": 38.8054605, "lng": -120.8942312, "dogs": "restricted", "gov": "California Department of Parks and Recreation"}, {"fid": 12234372, "name": "Rio Del Mar State Beach", "lat": 36.96384, "lng": -121.8977348, "dogs": "yes", "gov": "California Department of Parks and Recreation"}, {"fid": 12238191, "name": "Oak Street Beach", "lat": 33.5325762, "lng": -117.777152, "dogs": "yes", "gov": "Laguna Beach, City of"}, {"fid": 12249702, "name": "Sandy Beach", "lat": 40.6877778, "lng": -120.7722222, "dogs": "yes", "gov": "United States Forest Service"}, {"fid": 12259423, "name": "Whaler’s Cove", "lat": 37.1819971, "lng": -122.3944545, "dogs": "no", "gov": "California Department of Parks and Recreation"}, {"fid": 12261297, "name": "Chicken Ranch Beach", "lat": 38.1098965, "lng": -122.8649672, "dogs": "restricted", "gov": "Marin County Parks Department, County of"}, {"fid": 12263932, "name": "Shadow Cliffs North Beach", "lat": 37.6711453, "lng": -121.842425, "dogs": "yes", "gov": "East Bay Regional Park District"}, {"fid": 12268071, "name": "Scott Creek Beach", "lat": 37.0400633, "lng": -122.2296917, "dogs": "no", "gov": "Santa Cruz, County of"}, {"fid": 12292832, "name": "Pebble Beach", "lat": 38.6966747, "lng": -123.439227, "dogs": "yes", "gov": "Sonoma County Regional Parks Dept., County of"}, {"fid": 12300073, "name": "Crescent Bay", "lat": 33.5465766, "lng": -117.801392, "dogs": "seasonal", "gov": "Orange, County of"}, {"fid": 12317122, "name": "Camel Rock Surf", "lat": 41.061818, "lng": -124.140634, "dogs": "restricted", "gov": "Trinidad Coastal Land Trust"}, {"fid": 12339775, "name": "Big Rock Beach", "lat": 34.0370755, "lng": -118.6160563, "dogs": "restricted", "gov": "Malibu, City of"}, {"fid": 12341782, "name": "Pacifica Esplanade", "lat": 37.654655, "lng": -122.4931862, "dogs": "restricted", "gov": "Pacifica, City of"}, {"fid": 12351587, "name": "Rancho Guadalupe Dunes ", "lat": 34.9511013, "lng": -120.6528854, "dogs": "no", "gov": "Santa Barbara, County of"}, {"fid": 12355823, "name": "Atagam Beach", "lat": 39.2390346, "lng": -120.0468271, "dogs": "yes", "gov": "North Tahoe Public Utilities District"}, {"fid": 12416391, "name": "South Rodeo Beach", "lat": 37.8248865, "lng": -122.534152, "dogs": "no", "gov": "United States National Park Service"}, {"fid": 12421944, "name": "Caspar Headlands State Beach", "lat": 39.3611955, "lng": -123.8163686, "dogs": "restricted", "gov": "California Department of Parks and Recreation"}, {"fid": 12436870, "name": "Patton Beach", "lat": 39.2262122, "lng": -120.0794745, "dogs": "restricted", "gov": "California Tahoe Conservancy"}, {"fid": 12453042, "name": "Torrance Beach", "lat": 33.8129386, "lng": -118.3916116, "dogs": "restricted", "gov": "Los Angeles County Department of Beaches and Harbors, County of"}, {"fid": 12470304, "name": "Seal Rocks Beach", "lat": 37.7792544, "lng": -122.5142741, "dogs": "no", "gov": "United States National Park Service"}, {"fid": 12523606, "name": "Leo Carillo State Beach", "lat": 34.168605, "lng": -118.61796, "dogs": "restricted", "gov": "Los Angeles, City of"}, {"fid": 12555423, "name": "Secline Beach", "lat": 39.2367436, "lng": -120.0295413, "dogs": "restricted", "gov": "North Tahoe Public Utilities District"}, {"fid": 12559777, "name": "Hermosa City Beach", "lat": 33.864214, "lng": -118.3956, "dogs": "yes", "gov": "Hermosa Beach, City of"}, {"fid": 12605142, "name": "Ocean Beach Dog Beach", "lat": 32.7556101, "lng": -117.2501278, "dogs": "restricted", "gov": "San Diego, City of"}, {"fid": 12610125, "name": "North Beach", "lat": 33.4299908, "lng": -117.6309907, "dogs": "no", "gov": "San Clemente, City of"}, {"fid": 12629480, "name": "Sleepy Hollow Beach", "lat": 33.537777, "lng": -117.781121, "dogs": "yes", "gov": "Laguna Beach, City of"}, {"fid": 12641304, "name": "Aptos Beach & Marina", "lat": 36.9690704, "lng": -121.9053597, "dogs": "yes", "gov": "California Department of Parks and Recreation"}, {"fid": 12652743, "name": "Hollywood Beach", "lat": 34.1662246, "lng": -119.2314903, "dogs": "restricted", "gov": "Channel Islands National Park"}, {"fid": 12653266, "name": "Grace Beach", "lat": 32.7147242, "lng": -117.2247367, "dogs": "yes", "gov": "San Diego Unified Port District"}, {"fid": 12669632, "name": "Casa Verde Beach", "lat": 36.6048313, "lng": -121.8697929, "dogs": "restricted", "gov": "Monterey, City of"}, {"fid": 12670761, "name": "Shell Beach", "lat": 38.7254323, "lng": -123.4798158, "dogs": "yes", "gov": "United States Bureau of Land Management"}, {"fid": 12690329, "name": "Santa Rosa Creek Beach", "lat": 35.567956, "lng": -121.1094896, "dogs": "no", "gov": "Santa Rosa Creek NP"}, {"fid": 12699748, "name": "Point Reyes South Beach", "lat": 38.0486318, "lng": -122.9886174, "dogs": "restricted", "gov": "United States National Park Service"}, {"fid": 12705994, "name": "Staircase Beach", "lat": 34.0466838, "lng": -118.9471774, "dogs": "restricted", "gov": "California Department of Parks and Recreation"}, {"fid": 12719060, "name": "Sandy Beach", "lat": 36.5071507, "lng": -121.9392476, "dogs": "no", "gov": "California Department of Parks and Recreation"}, {"fid": 12743258, "name": "Phillip Burton Memorial Beach", "lat": 37.7069724, "lng": -122.5020362, "dogs": "restricted", "gov": "Golden Gate National Recreation Area"}, {"fid": 12771901, "name": "Paradise Cove", "lat": 37.8947222, "lng": -122.4575, "dogs": "no", "gov": "Marin County Parks Department, County of"}, {"fid": 12851671, "name": "King Salmon Beach", "lat": 40.7407683, "lng": -124.2191439, "dogs": "restricted", "gov": null}, {"fid": 12854222, "name": "Gazos Creek State Beach", "lat": 37.1649763, "lng": -122.3626113, "dogs": "no", "gov": "California Department of Parks and Recreation"}, {"fid": 12903953, "name": "Rock Point Beach", "lat": 38.3937458, "lng": -123.0900367, "dogs": "restricted", "gov": "United States Bureau of Land Management"}, {"fid": 13004338, "name": "Charlie Beach", "lat": 33.9650389, "lng": -118.4585166, "dogs": "no", "gov": "Los Angeles, County of"}, {"fid": 13014075, "name": "Granite Beach", "lat": 36.5955462, "lng": -121.9615245, "dogs": "restricted", "gov": "United States Bureau of Land Management"}, {"fid": 13014503, "name": "Venice Beach", "lat": 33.9736342, "lng": -118.4634089, "dogs": "restricted", "gov": "Los Angeles Department of Recreation and Parks, City of"}, {"fid": 13034367, "name": "The Original Muscle Beach", "lat": 34.0089717, "lng": -118.4948711, "dogs": "restricted", "gov": "Santa Monica, City of"}, {"fid": 13035523, "name": "Pfeiffer Beach", "lat": 36.2395832, "lng": -121.8178868, "dogs": "yes", "gov": "United States Forest Service"}, {"fid": 13044227, "name": "Chambers Landing Beach", "lat": 39.0736651, "lng": -120.1410609, "dogs": "yes", "gov": "United States Forest Service"}, {"fid": 13071272, "name": "Bahia Point", "lat": 32.7741416, "lng": -117.24531, "dogs": "restricted", "gov": "San Diego, City of"}, {"fid": 13071524, "name": "El Granada Beach", "lat": 37.5009667, "lng": -122.4725726, "dogs": "restricted", "gov": "Half Moon Bay, City of"}, {"fid": 13077704, "name": "Miramar Beach", "lat": 34.4194271, "lng": -119.6286304, "dogs": "restricted", "gov": null}, {"fid": 13085472, "name": "Seacliff State Beach", "lat": 36.9718383, "lng": -121.9137597, "dogs": "yes", "gov": "California Department of Parks and Recreation"}, {"fid": 13099025, "name": "Pacifica State Beach", "lat": 37.5988918, "lng": -122.5019417, "dogs": "yes", "gov": "Pacifica, City of"}, {"fid": 13126497, "name": "Black Sands Beach", "lat": 37.8243366, "lng": -122.5084973, "dogs": "no", "gov": "United States National Park Service"}, {"fid": 13161044, "name": "Thousand Steps Beach", "lat": 34.3958044, "lng": -119.7136295, "dogs": "yes", "gov": "Santa Barbara, City of"}, {"fid": 13182193, "name": "Haskell's Beach", "lat": 34.4319068, "lng": -119.9178223, "dogs": "yes", "gov": "Goleta, City of"}, {"fid": 13183834, "name": "Ellwood Beach", "lat": 34.4148438, "lng": -119.8856449, "dogs": "yes", "gov": "Goleta, City of"}, {"fid": 13194778, "name": "Privates Beach", "lat": 36.9648349, "lng": -121.9608137, "dogs": "yes", "gov": "Santa Cruz County Parks, County of"}, {"fid": 13222871, "name": "Cove East", "lat": 38.9399559, "lng": -120.0027302, "dogs": "restricted", "gov": "California Tahoe Conservancy"}, {"fid": 13247564, "name": "Oak Park Tennis Courts", "lat": 34.4311732, "lng": -119.7274249, "dogs": "yes", "gov": "Santa Barbara, City of"}, {"fid": 13285943, "name": "Heart's Desire Beach", "lat": 38.1324856, "lng": -122.8926072, "dogs": "restricted", "gov": "California Department of Parks and Recreation"}, {"fid": 13318288, "name": "Perles Beach", "lat": 37.8552462, "lng": -122.4383231, "dogs": "restricted", "gov": "California Department of Parks and Recreation"}, {"fid": 13337212, "name": "Arch Beach", "lat": 33.5217, "lng": -117.76474, "dogs": "seasonal", "gov": "Laguna Beach, City of"}, {"fid": 13378408, "name": "Mesa Lane Beach", "lat": 34.3972192, "lng": -119.7306551, "dogs": "restricted", "gov": "Santa Barbara, City of"}, {"fid": 13416631, "name": "Moran Lake Beach", "lat": 36.956224, "lng": -121.978218, "dogs": "yes", "gov": "Santa Cruz, County of"}, {"fid": 13424834, "name": "Del Monte Beach", "lat": 36.6014975, "lng": -121.8888817, "dogs": "restricted", "gov": "California Department of Parks and Recreation"}, {"fid": 13483457, "name": "Elk Fence South Beach", "lat": 38.176212, "lng": -122.926776, "dogs": "restricted", "gov": "United States National Park Service"}, {"fid": 13489559, "name": "Law Street Beach", "lat": 32.8021917, "lng": -117.2600305, "dogs": "restricted", "gov": "San Diego, City of"}, {"fid": 13499821, "name": "Sandspit Beach", "lat": 35.303288, "lng": -120.874967, "dogs": "restricted", "gov": "Morro Dunes NP"}, {"fid": 13503133, "name": "Santa Claus Beach", "lat": 34.4054040002231, "lng": -119.548019000425, "dogs": "restricted", "gov": "California State Lands Commission"}, {"fid": 13548174, "name": "Tamarack State Beach", "lat": 33.1462292, "lng": -117.3453569, "dogs": "no", "gov": "California Department of Parks and Recreation"}, {"fid": 13566763, "name": "Carpinteria City Beach", "lat": 34.394711, "lng": -119.5276666, "dogs": "restricted", "gov": "California Department of Parks and Recreation"}, {"fid": 13591628, "name": "Oxnard Beach", "lat": 34.1808319, "lng": -119.239254, "dogs": "yes", "gov": "Oxnard, City of"}, {"fid": 13639281, "name": "Wilder Beach", "lat": 36.9534328, "lng": -122.078222, "dogs": "no", "gov": "California Department of Parks and Recreation"}, {"fid": 13652015, "name": "Pirate's Cove", "lat": 35.1760358, "lng": -120.7159603, "dogs": "yes", "gov": "San Luis Obispo, County of"}, {"fid": 13667950, "name": "Bayshore Beach", "lat": 33.7544153, "lng": -118.131769, "dogs": "restricted", "gov": "Long Beach, City of"}, {"fid": 13695656, "name": "Sun Gold Point", "lat": 32.8188533, "lng": -117.2762257, "dogs": "yes", "gov": "San Diego, City of"}, {"fid": 13712640, "name": "Carpinteria Seal Sanctuary", "lat": 34.3855638, "lng": -119.5056829, "dogs": "yes", "gov": "Carpinteria, City of"}, {"fid": 13726199, "name": "Pipes Beach", "lat": 33.0250636, "lng": -117.2868955, "dogs": "restricted", "gov": "California Department of Parks and Recreation"}, {"fid": 13746499, "name": "La Costa Beach", "lat": 34.0378723, "lng": -118.644247, "dogs": "restricted", "gov": "Other State"}, {"fid": 13755489, "name": "Muir Beach", "lat": 37.8594824, "lng": -122.5759542, "dogs": "no", "gov": "United States National Park Service"}, {"fid": 13760303, "name": "Lechuza Beach", "lat": 34.0359373, "lng": -118.8661682, "dogs": "no", "gov": "Mountains Recreation and Conservation Authority"}, {"fid": 13764388, "name": "Thalia Street Beach", "lat": 33.5354245, "lng": -117.7792396, "dogs": "no", "gov": "Laguna Beach, City of"}, {"fid": 13771496, "name": "La Jolla Tide Pools", "lat": 32.8411683, "lng": -117.2816545, "dogs": "yes", "gov": "San Diego, City of"}, {"fid": 13805347, "name": "Campbell Cove", "lat": 38.3048685, "lng": -123.0572142, "dogs": "restricted", "gov": "California Department of Parks and Recreation"}, {"fid": 13935571, "name": "McNear's Beach", "lat": 37.9924206, "lng": -122.4524285, "dogs": "no", "gov": "Marin County Parks Department, County of"}, {"fid": 13938039, "name": "Thornhill Broome Beach", "lat": 34.079654, "lng": -119.0298399, "dogs": "restricted", "gov": "California Department of Parks and Recreation"}, {"fid": 13956474, "name": "Pescadero State Beach", "lat": 37.2691452, "lng": -122.410788, "dogs": "no", "gov": "California Department of Parks and Recreation"}, {"fid": 13964477, "name": "Venice Breakwater", "lat": 33.9852178, "lng": -118.4744167, "dogs": "yes", "gov": "Los Angeles Department of Recreation and Parks, City of"}, {"fid": 13977558, "name": "Loon Point Beach", "lat": 34.4142603, "lng": -119.5824897, "dogs": "restricted", "gov": null}, {"fid": 13977693, "name": "Fisherman's Beach", "lat": 35.1747406, "lng": -120.7547994, "dogs": "restricted", "gov": "Port San Luis Harbor District"}, {"fid": 13984640, "name": "Oceanside City Beach", "lat": 33.1952448, "lng": -117.3855686, "dogs": "no", "gov": "Oceanside, City of"}, {"fid": 13997367, "name": "Natalies Cove", "lat": 35.4938592, "lng": -121.0385928, "dogs": "restricted", "gov": "United States Bureau of Land Management"}, {"fid": 14001478, "name": "Playa Pacifica", "lat": 32.780564, "lng": -117.2123383, "dogs": "yes", "gov": "San Diego, City of"}, {"fid": 14005604, "name": "Monte Rio Beach", "lat": 38.466502, "lng": -123.0104978, "dogs": "yes", "gov": "Monte Rio Recreation and Park District"}, {"fid": 14016267, "name": "Malibu Lagoon State Beach", "lat": 34.0312803, "lng": -118.6823724, "dogs": "restricted", "gov": "Los Angeles County Department of Beaches and Harbors, County of"}, {"fid": 14120406, "name": "Rocky's Beach", "lat": 37.8515123, "lng": -122.3001114, "dogs": "restricted", "gov": "East Bay Regional Park District"}, {"fid": 14141666, "name": "Pleasure Point Beach", "lat": 36.9554047, "lng": -121.9719422, "dogs": "restricted", "gov": "Santa Cruz, County of"}, {"fid": 14182589, "name": "Lorenzo Beach", "lat": 33.4734822, "lng": -118.5660625, "dogs": "yes", "gov": "Santa Catalina Island Conservancy"}, {"fid": 14224047, "name": "Tanks Beach", "lat": 34.3162959, "lng": -119.364607, "dogs": null, "gov": null}, {"fid": 14224834, "name": "Moonstone Beach", "lat": 35.575138, "lng": -121.1139228, "dogs": "restricted", "gov": "California Department of Parks and Recreation"}, {"fid": 14230776, "name": "Bodega Dunes Beach", "lat": 38.3431526, "lng": -123.0677914, "dogs": "restricted", "gov": "California Department of Parks and Recreation"}, {"fid": 14256617, "name": "Capitola Beach", "lat": 36.9717536, "lng": -121.9512482, "dogs": "no", "gov": "Capitola, City of"}, {"fid": 14259314, "name": "Tower 55 Dockweiler Beach", "lat": 33.932349, "lng": -118.437553, "dogs": "no", "gov": "Los Angeles County Department of Beaches and Harbors, County of"}, {"fid": 14261506, "name": "Bean Hollow State Beach", "lat": 37.2451838557969, "lng": -122.418437132321, "dogs": "yes", "gov": "California Department of Parks and Recreation"}, {"fid": 14261841, "name": "South Beach", "lat": 41.7496976, "lng": -124.1890411, "dogs": "restricted", "gov": "Redwood National and State Parks"}, {"fid": 14268889, "name": "El Carmel Point", "lat": 32.7789942, "lng": -117.2473919, "dogs": "restricted", "gov": "San Diego, City of"}, {"fid": 14284168, "name": "Rock Cave", "lat": 33.4627894, "lng": -117.7149015, "dogs": "no", "gov": "Center for Natural Lands Management"}, {"fid": 14325893, "name": "Lake Siskiyou Beach", "lat": 41.2771304, "lng": -122.3410423, "dogs": "yes", "gov": "Siskiyou Flood Control and Water Conservation District, County of"}, {"fid": 14329230, "name": "Little River State Beach", "lat": 41.0163387, "lng": -124.1103134, "dogs": "restricted", "gov": "California Department of Parks and Recreation"}, {"fid": 14338127, "name": "Wash-Out Beach", "lat": 39.6996917, "lng": -121.9424701, "dogs": "yes", "gov": "United States Fish and Wildlife Service"}, {"fid": 14406748, "name": "San Onofre State Beach ", "lat": 33.3780609, "lng": -117.5705338, "dogs": "no", "gov": "California Department of Parks and Recreation"}, {"fid": 14417055, "name": "McWay Beach", "lat": 36.1584858, "lng": -121.6719281, "dogs": "no", "gov": "California Department of Parks and Recreation"}, {"fid": 14478598, "name": "Nicholas Canyon Beach", "lat": 34.0447433, "lng": -118.9209187, "dogs": "restricted", "gov": "Los Angeles County Department of Beaches and Harbors, County of"}, {"fid": 14501580, "name": "Oil Piers Beach", "lat": 34.3534367, "lng": -119.4290578, "dogs": "restricted", "gov": null}, {"fid": 14531769, "name": "Coronado Central Beach", "lat": 32.6833894, "lng": -117.1859694, "dogs": "restricted", "gov": "Coronado, City of"}, {"fid": 14534336, "name": "Ocean Beach", "lat": 37.7511724, "lng": -122.5095749, "dogs": "no", "gov": "United States National Park Service"}, {"fid": 14550322, "name": "Terramar Beach", "lat": 33.1284231, "lng": -117.3331261, "dogs": "restricted", "gov": "California Department of Parks and Recreation"}, {"fid": 14552332, "name": "Long Beach Turkey Trot", "lat": 33.755921, "lng": -118.138952, "dogs": "yes", "gov": "Long Beach, City of"}, {"fid": 14568154, "name": "Enderts Beach", "lat": 41.7214259, "lng": -124.1493717, "dogs": "no", "gov": "United States National Park Service"}, {"fid": 14571009, "name": "Kiva Beach", "lat": 38.9404215, "lng": -120.0576322, "dogs": "yes", "gov": "United States Forest Service"}, {"fid": 14603011, "name": "Weston Beach", "lat": 36.5132273, "lng": -121.9439355, "dogs": "no", "gov": "California Department of Parks and Recreation"}, {"fid": 14632327, "name": "Rat Beach", "lat": 33.8057092, "lng": -118.3935731, "dogs": "restricted", "gov": "Los Angeles County Department of Beaches and Harbors, County of"}, {"fid": 14634021, "name": "Leadbetter Beach", "lat": 34.4020374, "lng": -119.6987401, "dogs": "restricted", "gov": "Santa Barbara, City of"}, {"fid": 14649556, "name": "Jade Cove Beach", "lat": 35.9132449, "lng": -121.4699614, "dogs": "yes", "gov": "United States Forest Service"}, {"fid": 14679655, "name": "Padaro Lane", "lat": 34.4129244, "lng": -119.5583615, "dogs": null, "gov": null}, {"fid": 14705134, "name": "Summerland Beach", "lat": 34.4187124, "lng": -119.595195, "dogs": "restricted", "gov": null}, {"fid": 14725961, "name": "San Buenaventura State Beach", "lat": 34.2682204, "lng": -119.2794843, "dogs": "restricted", "gov": "California Department of Parks and Recreation"}, {"fid": 14754741, "name": "Glass Beach", "lat": 39.4519955, "lng": -123.8137766, "dogs": "restricted", "gov": "California Department of Parks and Recreation"}, {"fid": 14787947, "name": "Halfmoon Beach", "lat": 40.68, "lng": -120.79, "dogs": "yes", "gov": "United States Forest Service"}, {"fid": 14832292, "name": "Esplanade Beach", "lat": 37.60926, "lng": -122.4956858, "dogs": "yes", "gov": "Pacifica, City of"}, {"fid": 14866766, "name": "Clipper Cove Beach", "lat": 37.8134583, "lng": -122.3698962, "dogs": "restricted", "gov": "San Francisco, City of"}, {"fid": 14930948, "name": "Kirby Cove Beach", "lat": 37.8267673, "lng": -122.4899959, "dogs": "restricted", "gov": "Golden Gate National Recreation Area"}, {"fid": 14953009, "name": "Portuguese Beach", "lat": 39.303666, "lng": -123.803332, "dogs": "yes", "gov": "California Department of Parks and Recreation"}, {"fid": 15015769, "name": "Driftwood Beach", "lat": 38.1934648, "lng": -122.9653563, "dogs": "restricted", "gov": "United States National Park Service"}, {"fid": 15062750, "name": "Capistrano Blvd. Beach", "lat": 37.5035999, "lng": -122.4854376, "dogs": null, "gov": null}, {"fid": 15071594, "name": "Harbor Beach", "lat": 33.204348, "lng": -117.3935831, "dogs": "yes", "gov": "Oceanside, City of"}, {"fid": 15110317, "name": "Seal Rock Picnic Area", "lat": 36.5896059, "lng": -121.9632651, "dogs": "restricted", "gov": null}, {"fid": 15110967, "name": "Pescadero Beach", "lat": 37.2622222, "lng": -122.4133333, "dogs": "no", "gov": "California Department of Parks and Recreation"}, {"fid": 15112735, "name": "Del Mar Cliffs", "lat": 32.9469617, "lng": -117.2642744, "dogs": "no", "gov": "California Department of Parks and Recreation"}, {"fid": 15112796, "name": "North Tahoe Beach", "lat": 39.2373799, "lng": -120.0332937, "dogs": "restricted", "gov": "California Tahoe Conservancy"}, {"fid": 15113631, "name": "Tim O'Toole", "lat": 33.6589212, "lng": -117.9998259, "dogs": "restricted", "gov": "Huntington Beach, City of"}, {"fid": 15143532, "name": "East Beach", "lat": 40.6066343, "lng": -122.5299275, "dogs": "restricted", "gov": "United States National Park Service"}, {"fid": 15155143, "name": "Gaviota State Park Beach", "lat": 34.4710829, "lng": -120.2275384, "dogs": "restricted", "gov": "California Department of Parks and Recreation"}, {"fid": 15184156, "name": "County Line Beach", "lat": 34.0518718, "lng": -118.9605369, "dogs": "restricted", "gov": "California Department of Parks and Recreation"}, {"fid": 15184762, "name": "Cocklebur Beach", "lat": 37.8672271, "lng": -120.8702227, "dogs": "yes", "gov": "Stanislaus, County of"}, {"fid": 15185560, "name": "Driftwood Beach", "lat": 33.9767927, "lng": -118.4651792, "dogs": "restricted", "gov": "Los Angeles Department of Recreation and Parks, City of"}, {"fid": 15205379, "name": "Moreno Beach", "lat": 33.8698293, "lng": -117.1724981, "dogs": "restricted", "gov": "California Department of Parks and Recreation"}, {"fid": 15302970, "name": "Border Field State Park Beach", "lat": 32.5357748, "lng": -117.1238103, "dogs": "restricted", "gov": "California Department of Parks and Recreation"}, {"fid": 15314314, "name": "Hermosa Beach Pier", "lat": 33.8618834, "lng": -118.4020505, "dogs": "no", "gov": "Los Angeles County Department of Beaches and Harbors, County of"}, {"fid": 15337361, "name": "Broad Beach", "lat": 34.0351314, "lng": -118.8563728, "dogs": "restricted", "gov": "Malibu, City of"}, {"fid": 15392729, "name": "City of Imperial Beach", "lat": 32.5789094, "lng": -117.132966, "dogs": "yes", "gov": "Imperial Beach, City of"}, {"fid": 15393815, "name": "Shallow Beach", "lat": 38.1237558, "lng": -122.8822836, "dogs": "restricted", "gov": null}, {"fid": 15425433, "name": "Fish Rock Beach", "lat": 38.8028354, "lng": -123.5799755, "dogs": "yes", "gov": null}, {"fid": 15449126, "name": "Cardiff State Beach", "lat": 33.0107789, "lng": -117.2795576, "dogs": "yes", "gov": "California Department of Parks and Recreation"}, {"fid": 15449529, "name": "Miramontes Point Beach", "lat": 37.4336189, "lng": -122.4426377, "dogs": "restricted", "gov": "Half Moon Bay, City of"}, {"fid": 15453759, "name": "Butterfly Beach", "lat": 34.4175267, "lng": -119.6496446, "dogs": "yes", "gov": null}, {"fid": 15497636, "name": "Venice Beach", "lat": 33.991405, "lng": -118.4778495, "dogs": "restricted", "gov": "Los Angeles Department of Recreation and Parks, City of"}, {"fid": 15564872, "name": "Sunset State Beach", "lat": 36.8885453, "lng": -121.8339586, "dogs": "restricted", "gov": "California Department of Parks and Recreation"}, {"fid": 15567452, "name": "Point St. George Beach", "lat": 41.7855806, "lng": -124.2525193, "dogs": "no", "gov": "Del Norte County Parks, County of"}, {"fid": 15578153, "name": "Jetty Beach", "lat": 36.8097222, "lng": -121.79, "dogs": "restricted", "gov": "California Department of Parks and Recreation"}, {"fid": 15594118, "name": "Tijuana Beach Outlet", "lat": 32.5564715, "lng": -117.1269178, "dogs": "restricted", "gov": "United States Fish and Wildlife Service"}, {"fid": 15603665, "name": "Bannings Beach", "lat": 33.3745174, "lng": -118.3534974, "dogs": "yes", "gov": "Santa Catalina Island Conservancy"}, {"fid": 15608885, "name": "Irvine Cove Beach", "lat": 33.5569986950278, "lng": -117.816715693311, "dogs": "restricted", "gov": "California Department of Parks and Recreation"}, {"fid": 15617989, "name": "The Great Beach", "lat": 38.081745, "lng": -122.97306, "dogs": "restricted", "gov": "United States National Park Service"}, {"fid": 15626772, "name": "Executive Surfing Club", "lat": 32.6835574, "lng": -117.1837531, "dogs": "restricted", "gov": "Coronado, City of"}, {"fid": 15651843, "name": "Three Mile Beach", "lat": 36.9617036, "lng": -122.1126163, "dogs": "no", "gov": "California Department of Parks and Recreation"}, {"fid": 15742536, "name": "Arroyo Quemada Beach", "lat": 34.4620447, "lng": -120.04907, "dogs": "restricted", "gov": "California Department of Parks and Recreation"}, {"fid": 15744198, "name": "Pismo State Beach", "lat": 35.106077, "lng": -120.6309557, "dogs": "yes", "gov": "California Department of Parks and Recreation"}, {"fid": 15793019, "name": "The Slot", "lat": 36.5137664, "lng": -121.9457047, "dogs": "no", "gov": "California Department of Parks and Recreation"},